(0)linux time (ms),    (1)uptime  (ms),      (2)drive mode,(3)mpc step counter,(4)mpc origin latitude  (deg),(5)mpc origin longitude  (deg),(6)closest trajectory point index to robot,(7)mpc error x (W;E)  (m),(8)mpc error y (W;E)  (m),(9)abs mpc error (m),(10)input [x] for mhe (m),(11)input [y] for mhe (m),(12)input [speed] for mhe (m/s),(13)input [vyaw] for mhe (rad/s),(14)mhe output x  (m),(15)mhe output y  (m),(16)mhe output speed  (m/s),(17)mhe output yaw  (rad),(18)mpc reference heading (rad),(19)mpc turn rate command (rad/s),(20)turn rate command as PWM,(21)throttle command as PWM,(22)primary gps latitude (deg),(23)primary gps longitude (deg),(24)secondary gps latitude  (deg),(25)secondary gps longitude (deg),(26)accelerometer x (m/s^2),(27)accelerometer y (m/s^2),(28)accelerometer z (m/s^2),(29)gyro yaw rate (rad/s),(30)gyro pitch rate   (rad/s),(31)gyro roll rate (rad/s),      (32)yaw (rad),  (33)pitch   (rad),     (34)roll (rad),(35)sonar1 measurement (m),(36)ultrasonic sensor measurement (m),(37)primary gps time (s),(38)normalized turn rate command,(39)normalized throttle command,(40)speed calculation from encoder left (m/s),(41)speed calculation from encoder right (m/s),(42)front gimbal target angle (degrees from straight down),(43)left gimbal target angle  (degrees from straight down),(44)right gimbal target angle  (degrees from straight down),(45)front gimbal measured angle  (degrees from straight down),(46)left gimbal measured angle    (degrees from straight down),(47)right gimbal measured angle  (degrees from straight down),(48)internal temperature (C),(49)battery voltage (V),(50)primary gps type,(51)secondary gps type,    (52)MPC R value, (53)MPC Q[0] value,

1533757307642, 353642, AUTO, 0, 39.5080228495, -0.4620177426, 0, 7497046.3120894199, 61789.1002050992, 7497300.9342374494, 7497043.7810345804, 61785.3109324995, 0.5174063444, -0.0425860347, 7497046.4088429753, 61786.7496812817, 1.9287181868, 2548.0147834852, 0.0000000000, 0.0000000000, 1490, 1700, 40.0636715000, -88.2013243333, 0.0000000000, 0.0000000000, 0.2941994965, -0.3922660053, -9.8066501617, -0.0776671484, 0.0670206418, -0.1373574101, 1.7882643356, 6.0496601680, 3.0532790360, 0.0000000000, 0.0000000000, 0, -0.0199999809, 0.3999999762, 0.4576277733, 0.5771848559, 90.0000000000, 90.0000000000, 90.0000000000, 0.0000000000, -17.9526767731, -18.8439464569, 36.2999992371, 15.8669891357, 9.2399997711, 2, -1, 10, 1, 0
1533757307842, 353842, AUTO, 0, 39.5080228495, -0.4620177426, 0, 7497046.3120894199, 61789.1002050992, 7497300.9342374494, 7497043.7810345804, 61785.3109324995, 0.4990129173, -0.0425860347, 7497046.4088429753, 61786.7496812817, 1.9287181868, 2548.0147834852, 0.0000000000, 0.0000000000, 1500, 1700, 40.0636715000, -88.2013243333, 0.0000000000, 0.0000000000, 1.1767979860, 4.0207266808, -9.8066501617, 0.1755801301, 0.2522000736, -0.0148352991, 1.8224727730, 5.9962531355, 3.0457739818, 0.0000000000, 0.0000000000, 0, 0.0000000000, 0.3999999762, 0.4333484769, 0.5646773577, 90.0000000000, 90.0000000000, 90.0000000000, 0.0000000000, -17.9526767731, -18.5256347656, 36.2999992371, 15.8669891357, 9.2399997711, 2, -1, 10, 1, 0
1533757308043, 354043, AUTO, 0, 39.5080228495, -0.4620177426, 0, 7497046.3120894199, 61789.1002050992, 7497300.9342374494, 7497043.7810345804, 61785.3109324995, 0.5174062848, -0.0425860347, 7497046.4088429753, 61786.7496812817, 1.9287181868, 2548.0147834852, 0.0000000000, 0.0000000000, 1480, 1700, 40.0636715000, -88.2013243333, 0.0000000000, 0.0000000000, 1.1767979860, 0.8825985193, -13.5331773758, -0.4747295699, -0.0584685283, 0.1085594758, 1.8469074091, 6.0020130203, 3.0264008164, 0.0000000000, 0.0000000000, 0, -0.0400000215, 0.3999999762, 0.4795159101, 0.5552966595, 90.0000000000, 90.0000000000, 90.0000000000, 0.0000000000, -17.9526767731, -17.9526767731, 36.2999992371, 15.8669891357, 9.2399997711, 2, -1, 10, 1, 0
1533757308243, 354243, AUTO, 0, 39.5080228495, -0.4620177426, 0, 7497046.3120894199, 61789.1002050992, 7497300.9342374494, 7497043.7810345804, 61785.3109324995, 0.5147392750, -0.0425860347, 7497046.4088429753, 61786.7496812817, 1.9287181868, 2548.0147834852, 0.0000000000, 0.0000000000, 1520, 1700, 40.0636715000, -88.2013243333, 0.0000000000, 0.0000000000, 1.7651970387, -0.3922660053, -13.9254426956, -0.1223475846, -0.0467748251, -0.0553269386, 1.8762289459, 6.0138811314, 3.0485665725, 0.0000000000, 0.0000000000, 0, 0.0399999619, 0.3999999762, 0.4769408405, 0.5525376797, 90.0000000000, 90.0000000000, 90.0000000000, 0.0000000000, -17.9526767731, -19.9898605347, 36.2999992371, 15.8669891357, 9.2399997711, 2, -1, 10, 1, 0
1533757308443, 354443, AUTO, 0, 39.5080228495, -0.4620177426, 0, 7497046.3120894199, 61789.1002050992, 7497300.9342374494, 7497043.7810345804, 61785.3109324995, 0.5032434464, -0.0425860347, 7497046.4088429753, 61786.7496812817, 1.9287181868, 2548.0147834852, 0.0000000000, 0.0000000000, 1490, 1700, 40.0636715000, -88.2013243333, 0.0000000000, 0.0000000000, -0.6864655018, 3.1381280422, -7.0607881546, -0.3885102955, 0.1511455106, -0.0638790521, 1.8924605133, 6.0280182558, 3.0290189701, 0.0000000000, 0.0000000000, 0, -0.0199999809, 0.3999999762, 0.5083935857, 0.4980932474, 90.0000000000, 90.0000000000, 90.0000000000, 0.0000000000, -17.9526767731, -20.1808471680, 36.2999992371, 15.8624725342, 10.7299995422, 2, -1, 10, 1, 0
1533757308644, 354644, AUTO, 0, 39.5080228495, -0.4620177426, 0, 7497045.7398162521, 61788.4081776321, 7497300.3562803948, 7497043.1637004707, 61785.0885426467, 0.5183259845, -0.1340412836, 7497045.8365698075, 61786.0576538146, 1.9873333411, 2548.2563708214, 0.0000000000, 0.0000000000, 1510, 1700, 40.0636695000, -88.2013158333, 0.0000000000, 0.0000000000, 0.0980665013, 4.6091256142, -6.2762560844, 0.0383972444, -0.0127409039, -0.3139847284, 1.9011871595, 5.9622190021, 3.0199431834, 0.0000000000, 0.0000000000, 0, 0.0199999809, 0.3999999762, 0.5129919052, 0.5236600637, 90.0000000000, 90.0000000000, 90.0000000000, 0.0000000000, -17.9526767731, -17.8890151978, 36.2999992371, 15.8624725342, 10.7299995422, 2, -1, 10, 1, 0
1533757308844, 354844, AUTO, 0, 39.5080228495, -0.4620177426, 0, 7497045.7398162521, 61788.4081776321, 7497300.3562803948, 7497043.1637004707, 61785.0885426467, 0.5104168057, -0.1340412836, 7497045.8365698075, 61786.0576538146, 1.9873333411, 2548.2563708214, 0.0000000000, 0.0000000000, 1510, 1700, 40.0636695000, -88.2013158333, 0.0000000000, 0.0000000000, 1.2748644352, 0.6864655018, -9.8066501617, -0.2288126589, -0.0574213317, -0.3810053744, 1.9348720194, 6.0084706534, 3.0033626088, 0.0000000000, 0.0000000000, 0, 0.0199999809, 0.3999999762, 0.4863214791, 0.5345121622, 90.0000000000, 90.0000000000, 90.0000000000, 0.0000000000, -17.9526767731, -19.1622543335, 36.2999992371, 15.8624725342, 10.7299995422, 2, -1, 10, 1, 0
1533757309045, 355045, AUTO, 0, 39.5080228495, -0.4620177426, 0, 7497045.7398162521, 61788.4081776321, 7497300.3562803948, 7497043.1637004707, 61785.0885426467, 0.5223724842, -0.1340412836, 7497045.8365698075, 61786.0576538146, 1.9873333411, 2548.2563708214, 0.0000000000, 0.0000000000, 1450, 1700, 40.0636695000, -88.2013158333, 0.0000000000, 0.0000000000, -0.6864655018, 1.0787315369, -11.3757133484, 0.0265290043, -0.1893682305, -0.0064577183, 1.9533724669, 5.9845597278, 3.0058060591, 0.0000000000, 0.0000000000, 0, -0.1000000238, 0.3999999762, 0.5343282223, 0.5104168057, 90.0000000000, 90.0000000000, 90.0000000000, 0.0000000000, -17.9526767731, -18.1436634064, 36.2999992371, 15.8624725342, 10.7299995422, 2, -1, 10, 1, 0
1533757309245, 355245, AUTO, 0, 39.5080228495, -0.4620177426, 0, 7497045.7398162521, 61788.4081776321, 7497300.3562803948, 7497043.1637004707, 61785.0885426467, 0.5150151849, -0.1340412836, 7497045.8365698075, 61786.0576538146, 1.9873333411, 2548.2563708214, 0.0000000000, 0.0000000000, 1490, 1700, 40.0636695000, -88.2013158333, 0.0000000000, 0.0000000000, 0.7845320106, 4.2168593407, -14.1215763092, -0.1361356850, -0.3043854309, -0.3001966447, 1.9455185385, 6.0156265672, 2.9996973002, 0.0000000000, 0.0000000000, 0, -0.0199999809, 0.3999999762, 0.5462839603, 0.4837464094, 90.0000000000, 90.0000000000, 90.0000000000, 0.0000000000, -17.9526767731, -18.7802829742, 36.2999992371, 15.8624725342, 10.7299995422, 2, -1, 10, 1, 0
1533757309445, 355445, AUTO, 0, 39.5080228495, -0.4620177426, 0, 7497045.7398162521, 61788.4081776321, 7497300.3562803948, 7497043.1637004707, 61785.0885426467, 0.5159348249, -0.1340412836, 7497045.8365698075, 61786.0576538146, 1.9873333411, 2548.2563708214, 0.0000000000, 0.0000000000, 1530, 1700, 40.0636695000, -88.2013158333, 0.0000000000, 0.0000000000, 0.8825985193, 6.4723892212, -11.8660469055, 0.3693116671, -0.2330014618, 0.0691150390, 1.9476128484, 6.0220842002, 2.9962066949, 0.0000000000, 0.0000000000, 0, 0.0599999428, 0.3999999762, 0.5212689638, 0.5106007457, 90.0000000000, 90.0000000000, 90.0000000000, 0.0000000000, -17.9526767731, -18.4619731903, 36.2999992371, 15.8609800339, 13.0100002289, 2, -1, 10, 1, 0
1533757309646, 355646, AUTO, 0, 39.5080228495, -0.4620177426, 0, 7497044.9893069007, 61788.6464963402, 7497299.6077606203, 7497042.6186178466, 61785.1256076222, 0.5162107348, 0.2319542569, 7497045.0860604560, 61786.2959725227, 2.0000000000, 2548.0698164926, 0.0000000000, 0.0000000000, 1530, 1700, 40.0636698333, -88.2013096667, 0.0000000000, 0.0000000000, -1.9613300562, 1.0787315369, -10.6892490387, -0.3405137411, -0.1713913272, -0.2213077545, 1.9477874186, 6.0023618944, 3.0363493210, 0.0000000000, 0.0000000000, 0, 0.0599999428, 0.3999999762, 0.5275226831, 0.5048987865, 90.0000000000, 90.0000000000, 90.0000000000, 0.0000000000, -17.9526767731, -17.7616920471, 36.2999992371, 15.8609800339, 13.0100002289, 2, -1, 10, 1, 0
1533757309846, 355846, AUTO, 0, 39.5080228495, -0.4620177426, 0, 7497044.9893069007, 61788.6464963402, 7497299.6077606203, 7497042.6186178466, 61785.1256076222, 0.5134516954, 0.2319542569, 7497045.0860604560, 61786.2959725227, 2.0000000000, 2548.0698164926, 0.0000000000, 0.0000000000, 1450, 1700, 40.0636698333, -88.2013096667, 0.0000000000, 0.0000000000, -0.6864655018, 1.8632634878, -12.8467111588, 0.1319468905, 0.2883284004, 0.1574287065, 1.9491837140, 6.0512309005, 3.0140091279, 0.0000000000, 0.0000000000, 0, -0.1000000238, 0.3999999762, 0.5273387432, 0.4995647073, 90.0000000000, 90.0000000000, 90.0000000000, 0.0000000000, -17.9526767731, -17.6980285645, 36.2999992371, 15.8609800339, 13.0100002289, 2, -1, 10, 1, 0
1533757310046, 356046, AUTO, 0, 39.5080228495, -0.4620177426, 0, 7497044.9893069007, 61788.6464963402, 7497299.6077606203, 7497042.6186178466, 61785.1256076222, 0.5187858343, 0.2319542569, 7497045.0860604560, 61786.2959725227, 2.0000000000, 2548.0698164926, 0.0000000000, 0.0000000000, 1510, 1700, 40.0636698333, -88.2013096667, 0.0000000000, 0.0000000000, 1.7651970387, 3.6284606457, -11.3757133484, -0.0329867226, -0.2693043089, 0.2459168943, 1.9558159172, 6.0164990188, 3.0255283649, 0.0000000000, 0.0000000000, 0, 0.0199999809, 0.3999999762, 0.5175902247, 0.5199813843, 90.0000000000, 90.0000000000, 90.0000000000, 0.0000000000, -17.9526767731, -18.1436634064, 36.2999992371, 15.8609800339, 13.0100002289, 2, -1, 10, 1, 0
1533757310247, 356247, AUTO, 0, 39.5080228495, -0.4620177426, 0, 7497044.9893069007, 61788.6464963402, 7497299.6077606203, 7497042.6186178466, 61785.1256076222, 0.5211769342, 0.2319542569, 7497045.0860604560, 61786.2959725227, 2.0000000000, 2548.0698164926, 0.0000000000, 0.0000000000, 1480, 1700, 40.0636698333, -88.2013096667, 0.0000000000, 0.0000000000, 1.0787315369, 0.4903325140, -12.9447784424, -0.2085668423, -0.1010545630, 0.1490511175, 1.9757126600, 6.0606558276, 3.0218630563, 0.0000000000, 0.0000000000, 0, -0.0400000215, 0.3999999762, 0.5139115453, 0.5284423828, 90.0000000000, 90.0000000000, 90.0000000000, 0.0000000000, -17.9526767731, -17.3797206879, 36.2999992371, 15.8609800339, 13.0100002289, 2, -1, 10, 1, 0
1533757310447, 356447, AUTO, 0, 39.5080228495, -0.4620177426, 0, 7497044.9893069007, 61788.6464963402, 7497299.6077606203, 7497042.6186178466, 61785.1256076222, 0.5157508850, 0.2319542569, 7497045.0860604560, 61786.2959725227, 2.0000000000, 2548.0698164926, 0.0000000000, 0.0000000000, 1500, 1700, 40.0636698333, -88.2013096667, 0.0000000000, 0.0000000000, -0.3922660053, 0.5883989930, -10.1989154816, -0.0287979322, 0.3895574837, -0.2682571040, 2.0048597597, 6.0945152576, 3.0035370458, 0.0000000000, 0.0000000000, 0, 0.0000000000, 0.3999999762, 0.4883447587, 0.5431570411, 90.0000000000, 90.0000000000, 90.0000000000, 0.0000000000, -17.9526767731, -17.9526767731, 36.2999992371, 15.8476696014, 10.2600002289, 2, -1, 10, 1, 0
1533757310647, 356647, AUTO, 0, 39.5080228495, -0.4620177426, 0, 7497044.5314827012, 61787.7855796904, 7497299.1428568140, 7497041.5032349266, 61784.4955030379, 0.5131758451, -0.0383972444, 7497044.6282362565, 61785.4350558729, 2.0000000000, 2548.3630342424, 0.0000000000, 0.0000000000, 1520, 1700, 40.0636641667, -88.2012930000, 0.0000000000, 0.0000000000, 2.4516625404, 2.3535959721, -10.1008491516, 0.0755727553, 0.2532472785, 0.0191986222, 2.0074776471, 6.0477405615, 2.9941123851, 0.0000000000, 0.0000000000, 0, 0.0399999619, 0.3999999762, 0.5146473050, 0.5117043853, 90.0000000000, 90.0000000000, 90.0000000000, 0.0000000000, -17.9526767731, -18.2709884644, 35.7610015869, 15.8476696014, 10.2600002289, 2, -1, 10, 1, 0
1533757310848, 356848, AUTO, 0, 39.5080228495, -0.4620177426, 0, 7497044.5314827012, 61787.7855796904, 7497299.1428568140, 7497041.5032349266, 61784.4955030379, 0.5091292858, -0.0383972444, 7497044.6282362565, 61785.4350558729, 2.0000000000, 2548.3630342424, 0.0000000000, 0.0000000000, 1500, 1700, 40.0636641667, -88.2012930000, 0.0000000000, 0.0000000000, 0.2941994965, 0.1961330026, -12.3563785553, -0.1340412836, -0.4490732085, -0.1766273183, 2.0092230828, 6.0690335997, 2.9824187110, 0.0000000000, 0.0000000000, 0, 0.0000000000, 0.3999999762, 0.5082096457, 0.5100489855, 90.0000000000, 90.0000000000, 90.0000000000, 0.0000000000, -17.9526767731, -18.5892963409, 35.7610015869, 15.8476696014, 10.2600002289, 2, -1, 10, 1, 0
1533757311048, 357048, AUTO, 0, 39.5080228495, -0.4620177426, 0, 7497044.5314827012, 61787.7855796904, 7497299.1428568140, 7497041.5032349266, 61784.4955030379, 0.5146473646, -0.0383972444, 7497044.6282362565, 61785.4350558729, 2.0000000000, 2548.3630342424, 0.0000000000, 0.0000000000, 1460, 1700, 40.0636641667, -88.2012930000, 0.0000000000, 0.0000000000, 1.2748644352, 2.4516625404, -9.3163175583, 0.0191986222, 0.2809980162, -0.1511455106, 2.0043360491, 6.0569907853, 2.9771826700, 0.0000000000, 0.0000000000, 0, -0.0799999833, 0.3999999762, 0.5289942026, 0.5003004670, 90.0000000000, 90.0000000000, 90.0000000000, 0.0000000000, -17.9526767731, -18.9712696075, 35.7610015869, 15.8476696014, 10.2600002289, 2, -1, 10, 1, 0
1533757311249, 357249, AUTO, 0, 39.5080228495, -0.4620177426, 0, 7497044.5314827012, 61787.7855796904, 7497299.1428568140, 7497041.5032349266, 61784.4955030379, 0.5185099244, -0.0383972444, 7497044.6282362565, 61785.4350558729, 2.0000000000, 2548.3630342424, 0.0000000000, 0.0000000000, 1530, 1700, 40.0636641667, -88.2012930000, 0.0000000000, 0.0000000000, 3.0400614738, 3.8245933056, -11.4737796783, -0.1308996939, -0.0254818077, 0.1160643969, 2.0001472962, 6.0306361431, 2.9740409389, 0.0000000000, 0.0000000000, 0, 0.0599999428, 0.3999999762, 0.4988289773, 0.5381909013, 90.0000000000, 90.0000000000, 90.0000000000, 0.0000000000, -17.9526767731, -18.2073249817, 35.7610015869, 15.8476696014, 10.2600002289, 2, -1, 10, 1, 0
1533757311449, 357449, AUTO, 0, 39.5080228495, -0.4620177426, 0, 7497044.5314827012, 61787.7855796904, 7497299.1428568140, 7497041.5032349266, 61784.4955030379, 0.5122561455, -0.0383972444, 7497044.6282362565, 61785.4350558729, 2.0000000000, 2548.3630342424, 0.0000000000, 0.0000000000, 1510, 1700, 40.0636641667, -88.2012930000, 0.0000000000, 0.0000000000, 3.2361946106, 1.7651970387, -7.1588544846, 0.1244419777, 0.0872664626, 0.0500909475, 2.0102702378, 6.0363954953, 3.0304152655, 0.0000000000, 0.0000000000, 0, 0.0199999809, 0.3999999762, 0.5104168057, 0.5140954852, 90.0000000000, 90.0000000000, 90.0000000000, 0.0000000000, -17.9526767731, -19.1622543335, 35.7610015869, 15.8344287872, 10.6599998474, 2, -1, 10, 1, 0
1533757311649, 357649, AUTO, 0, 39.5080228495, -0.4620177426, 0, 7497043.5102181463, 61788.4073950575, 7497298.1267515589, 7497040.8322692802, 61784.8476203052, 0.5149232149, -0.0298451309, 7497043.6069717016, 61786.0568712400, 2.0000000000, 2547.9798743814, 0.0000000000, 0.0000000000, 1500, 1700, 40.0636673333, -88.2012871667, 0.0000000000, 0.0000000000, 1.1767979860, 2.4516625404, -10.8853816986, -7.2069879524, -0.0064577183, -0.1298524973, 2.0160298563, 6.0070740917, 2.9825931481, 0.0000000000, 0.0000000000, 0, 0.0000000000, 0.3999999762, 0.5091292858, 0.5207171440, 90.0000000000, 90.0000000000, 90.0000000000, 0.0000000000, -17.9526767731, -19.0985946655, 35.7610015869, 15.8344287872, 10.6599998474, 2, -1, 10, 1, 0
1533757311850, 357850, AUTO, 0, 39.5080228495, -0.4620177426, 0, 7497043.5102181463, 61788.4073950575, 7497298.1267515589, 7497040.8322692802, 61784.8476203052, 0.5077497959, -0.0298451309, 7497043.6069717016, 61786.0568712400, 2.0000000000, 2547.9798743814, 0.0000000000, 0.0000000000, 1480, 1700, 40.0636673333, -88.2012871667, 0.0000000000, 0.0000000000, 0.5883989930, -0.0980665013, -5.2955913544, -0.1521927154, 0.1490511175, -0.2256710776, 2.0884610469, 6.1358794757, 2.9885272036, 0.0000000000, 0.0000000000, 0, -0.0400000215, 0.3999999762, 0.4563402236, 0.5591593385, 90.0000000000, 90.0000000000, 90.0000000000, 0.0000000000, -17.9526767731, -16.1064815521, 35.7610015869, 15.8344287872, 10.6599998474, 2, -1, 10, 1, 0
1533757312050, 358050, AUTO, 0, 39.5080228495, -0.4620177426, 0, 7497043.5102181463, 61788.4073950575, 7497298.1267515589, 7497040.8322692802, 61784.8476203052, 0.5207171440, -0.0298451309, 7497043.6069717016, 61786.0568712400, 2.0000000000, 2547.9798743814, 0.0000000000, 0.0000000000, 1540, 1700, 40.0636673333, -88.2012871667, 0.0000000000, 0.0000000000, 2.3535959721, 8.0414533615, -14.5138425827, -0.0319395261, 0.2415535711, 0.0563741352, 2.1113248174, 6.0306361431, 2.9672341654, 0.0000000000, 0.0000000000, 0, 0.0800000429, 0.3999999762, 0.5148312449, 0.5266029835, 90.0000000000, 90.0000000000, 90.0000000000, 0.0000000000, -17.9526767731, -18.8439464569, 35.7610015869, 15.8344287872, 10.6599998474, 2, -1, 10, 1, 0
1533757312250, 358250, AUTO, 0, 39.5080228495, -0.4620177426, 0, 7497043.5102181463, 61788.4073950575, 7497298.1267515589, 7497040.8322692802, 61784.8476203052, 0.5133597851, -0.0298451309, 7497043.6069717016, 61786.0568712400, 2.0000000000, 2547.9798743814, 0.0000000000, 0.0000000000, 1480, 1700, 40.0636673333, -88.2012871667, 0.0000000000, 0.0000000000, 1.5690640211, 1.3729310036, -7.1588544846, -0.3597123695, -0.5277875618, 0.3225368378, 2.1186551683, 6.0770619651, 2.9853857388, 0.0000000000, 0.0000000000, 0, -0.0400000215, 0.3999999762, 0.5071060061, 0.5196135044, 90.0000000000, 90.0000000000, 90.0000000000, 0.0000000000, -17.9526767731, -14.7059164047, 35.7610015869, 15.8344287872, 10.6599998474, 2, -1, 10, 1, 0
1533757312451, 358451, AUTO, 0, 39.5080228495, -0.4620177426, 0, 7497043.5102181463, 61788.4073950575, 7497298.1267515589, 7497040.8322692802, 61784.8476203052, 0.5114284754, -0.0298451309, 7497043.6069717016, 61786.0568712400, 2.0000000000, 2547.9798743814, 0.0000000000, 0.0000000000, 1550, 1700, 40.0636673333, -88.2012871667, 0.0000000000, 0.0000000000, 0.4903325140, 0.3922660053, -8.0414533615, 0.1659808159, -0.0425860347, 0.0106465087, 2.1022490308, 6.1355306016, 3.0293681105, 0.0000000000, 0.0000000000, 0, 0.1000000238, 0.3999999762, 0.5117043853, 0.5111525655, 90.0000000000, 90.0000000000, 90.0000000000, 0.0000000000, -17.9526767731, -18.5892963409, 35.7610015869, 15.8207120895, 8.6700000763, 2, -1, 10, 1, 0
1533757312651, 358651, AUTO, 0, 39.5080228495, -0.4620177426, 0, 7497043.1949375262, 61787.3105497495, 7497297.8024421595, 7497040.1315800408, 61785.1441401102, 0.5089453459, 0.0755727553, 7497043.2916910816, 61784.9600259320, 2.0000000000, 2548.3749507374, 0.0000000000, 0.0000000000, 1460, 1700, 40.0636700000, -88.2012806667, 0.0000000000, 0.0000000000, 0.9806650281, 2.6477956772, -9.7085838318, -0.0404916375, 0.2809980162, -0.6524040930, 2.1039944665, 6.0826471466, 2.9592058000, 0.0000000000, 0.0000000000, 0, -0.0799999833, 0.3999999762, 0.5597110987, 0.4581795633, 90.0000000000, 90.0000000000, 90.0000000000, 0.0000000000, -17.9526767731, -17.7616920471, 35.2239990234, 15.8207120895, 8.6700000763, 2, -1, 10, 1, 0
1533757312852, 358852, AUTO, 0, 39.5080228495, -0.4620177426, 0, 7497043.1949375262, 61787.3105497495, 7497297.8024421595, 7497040.1315800408, 61785.1441401102, 0.5183259249, 0.0755727553, 7497043.2916910816, 61784.9600259320, 2.0000000000, 2548.3749507374, 0.0000000000, 0.0000000000, 1550, 1700, 40.0636700000, -88.2012806667, 0.0000000000, 0.0000000000, -0.2941994965, 4.7071919441, -11.2776470184, 0.2085668423, 0.2745402833, 0.4267330154, 2.0896827720, 6.0206876385, 2.9890507811, 0.0000000000, 0.0000000000, 0, 0.1000000238, 0.3999999762, 0.5106007457, 0.5260511637, 90.0000000000, 90.0000000000, 90.0000000000, 0.0000000000, -17.9526767731, -19.5442276001, 35.2239990234, 15.8207120895, 8.6700000763, 2, -1, 10, 1, 0
1533757313052, 359052, AUTO, 0, 39.5080228495, -0.4620177426, 0, 7497043.1949375262, 61787.3105497495, 7497297.8024421595, 7497040.1315800408, 61785.1441401102, 0.5190616846, 0.0755727553, 7497043.2916910816, 61784.9600259320, 2.0000000000, 2548.3749507374, 0.0000000000, 0.0000000000, 1500, 1700, 40.0636700000, -88.2012806667, 0.0000000000, 0.0000000000, 0.5883989930, 1.9613300562, -9.6105175018, -0.1680752090, -0.3937462699, -0.1457349992, 2.0957913978, 6.0322068755, 3.0038861863, 0.0000000000, 0.0000000000, 0, 0.0000000000, 0.3999999762, 0.5186938643, 0.5194295645, 90.0000000000, 90.0000000000, 90.0000000000, 0.0000000000, -17.9526767731, -17.8253536224, 35.2239990234, 15.8207120895, 8.6700000763, 2, -1, 10, 1, 0
1533757313253, 359253, AUTO, 0, 39.5080228495, -0.4620177426, 0, 7497043.1949375262, 61787.3105497495, 7497297.8024421595, 7497040.1315800408, 61785.1441401102, 0.5104168653, 0.0755727553, 7497043.2916910816, 61784.9600259320, 2.0000000000, 2548.3749507374, 0.0000000000, 0.0000000000, 1520, 1700, 40.0636700000, -88.2012806667, 0.0000000000, 0.0000000000, 1.0787315369, 2.6477956772, -10.5911827087, 0.0137881015, -0.0265290043, 0.3256784358, 2.1020745937, 6.0020130203, 2.9930652301, 0.0000000000, 0.0000000000, 0, 0.0399999619, 0.3999999762, 0.5037952065, 0.5170384645, 90.0000000000, 90.0000000000, 90.0000000000, 0.0000000000, -17.9526767731, -18.5892963409, 35.2239990234, 15.8207120895, 8.6700000763, 2, -1, 10, 1, 0
1533757313453, 359453, AUTO, 0, 39.5080228495, -0.4620177426, 0, 7497043.1949375262, 61787.3105497495, 7497297.8024421595, 7497040.1315800408, 61785.1441401102, 0.5134516954, 0.0755727553, 7497043.2916910816, 61784.9600259320, 2.0000000000, 2548.3749507374, 0.0000000000, 0.0000000000, 1510, 1700, 40.0636700000, -88.2012806667, 0.0000000000, 0.0000000000, 1.0787315369, 1.3729310036, -12.8467111588, -0.3106685935, 0.1680752090, -0.3043854309, 2.1286035398, 6.0247020876, 2.9989992857, 0.0000000000, 0.0000000000, 0, 0.0199999809, 0.3999999762, 0.4973574877, 0.5295459628, 90.0000000000, 90.0000000000, 90.0000000000, 0.0000000000, -17.9526767731, -19.4169025421, 35.2239990234, 15.8023958206, 10.1999998093, 2, -1, 10, 1, 0
1533757313654, 359654, AUTO, 0, 39.5080228495, -0.4620177426, 0, 7497041.9564888971, 61788.4863431535, 7497296.5737257218, 7497039.4296494815, 61785.3850624511, 0.5117963552, -0.1692969341, 7497042.0532424524, 61786.1358193360, 2.0000000000, 2547.7551425483, 0.0000000000, 0.0000000000, 1510, 1700, 40.0636721667, -88.2012738333, 0.0000000000, 0.0000000000, 2.5497288704, 1.9613300562, -9.5124511719, -0.0041887901, -0.1223475846, 0.0287979322, 2.1357594536, 6.0123103990, 2.9899234990, 0.0000000000, 0.0000000000, 0, 0.0199999809, 0.3999999762, 0.4872411489, 0.5363515019, 90.0000000000, 90.0000000000, 90.0000000000, 0.0000000000, -17.9526767731, -19.4805660248, 35.2239990234, 15.8023958206, 10.1999998093, 2, -1, 10, 1, 0
1533757313855, 359855, AUTO, 0, 39.5080228495, -0.4620177426, 0, 7497041.9564888971, 61788.4863431535, 7497296.5737257218, 7497039.4296494815, 61785.3850624511, 0.5135437250, -0.1692969341, 7497042.0532424524, 61786.1358193360, 2.0000000000, 2547.7551425483, 0.0000000000, 0.0000000000, 1480, 1700, 40.0636721667, -88.2012738333, 0.0000000000, 0.0000000000, 1.4709975719, 2.2555296421, -10.6892490387, 0.0425860347, -0.2446951691, 0.1394518032, 2.1460568323, 6.0173714704, 3.0127872696, 0.0000000000, 0.0000000000, 0, -0.0400000215, 0.3999999762, 0.4997486472, 0.5273387432, 90.0000000000, 90.0000000000, 90.0000000000, 0.0000000000, -17.9526767731, -18.8439464569, 35.2239990234, 15.8023958206, 10.1999998093, 2, -1, 10, 1, 0
1533757314055, 360055, AUTO, 0, 39.5080228495, -0.4620177426, 0, 7497041.9564888971, 61788.4863431535, 7497296.5737257218, 7497039.4296494815, 61785.3850624511, 0.5063703060, -0.1692969341, 7497042.0532424524, 61786.1358193360, 2.0000000000, 2547.7551425483, 0.0000000000, 0.0000000000, 1470, 1700, 40.0636721667, -88.2012738333, 0.0000000000, 0.0000000000, 0.4903325140, 1.5690640211, -7.5511202812, -0.2724458902, 0.0361283144, 0.0329867226, 2.1490238600, 6.0306361431, 3.0091222273, 0.0000000000, 0.0000000000, 0, -0.0600000024, 0.3999999762, 0.4947824478, 0.5179581046, 90.0000000000, 90.0000000000, 90.0000000000, 0.0000000000, -17.9526767731, -18.0799999237, 35.2239990234, 15.8023958206, 10.1999998093, 2, -1, 10, 1, 0
1533757314255, 360255, AUTO, 0, 39.5080228495, -0.4620177426, 0, 7497041.9564888971, 61788.4863431535, 7497296.5737257218, 7497039.4296494815, 61785.3850624511, 0.5173143744, -0.1692969341, 7497042.0532424524, 61786.1358193360, 2.0000000000, 2547.7551425483, 0.0000000000, 0.0000000000, 1500, 1700, 40.0636721667, -88.2012738333, 0.0000000000, 0.0000000000, 0.4903325140, 0.4903325140, -11.2776470184, 0.1617920296, -0.0553269386, -0.1916371439, 2.1645572797, 6.0521038847, 3.0131364100, 0.0000000000, 0.0000000000, 0, 0.0000000000, 0.3999999762, 0.4964378476, 0.5381909013, 90.0000000000, 90.0000000000, 90.0000000000, 0.0000000000, -17.9526767731, -17.8890151978, 35.2239990234, 15.8023958206, 10.1999998093, 2, -1, 10, 1, 0
1533757314456, 360456, AUTO, 0, 39.5080228495, -0.4620177426, 0, 7497041.9564888971, 61788.4863431535, 7497296.5737257218, 7497039.4296494815, 61785.3850624511, 0.5147392750, -0.1692969341, 7497042.0532424524, 61786.1358193360, 2.0000000000, 2547.7551425483, 0.0000000000, 0.0000000000, 1490, 1700, 40.0636721667, -88.2012738333, 0.0000000000, 0.0000000000, 2.3535959721, 1.8632634878, -9.5124511719, -0.1607448248, 0.3033382093, 0.0830776764, 2.1888174788, 6.0547217720, 3.0279718152, 0.0000000000, 0.0000000000, 0, -0.0199999809, 0.3999999762, 0.5128079653, 0.5166705847, 90.0000000000, 90.0000000000, 90.0000000000, 0.0000000000, -17.9526767731, -18.5256347656, 35.2239990234, 15.7845201492, 12.0599994659, 2, -1, 10, 1, 0
1533757314656, 360656, AUTO, 0, 39.5080228495, -0.4620177426, 0, 7497041.5691276686, 61786.6558914818, 7497296.1712923218, 7497038.9920937875, 61785.3479974749, 0.5154750347, -0.0287979322, 7497041.6658812240, 61784.3053676643, 2.0000000000, 2548.5370264015, 0.0000000000, 0.0000000000, 1510, 1700, 40.0636718333, -88.2012685000, 0.0000000000, 0.0000000000, 0.6864655018, 2.0593965054, -9.3163175583, -0.1457349992, -0.2597049947, 0.0148352991, 2.1978931324, 6.0566413785, 3.0188960285, 0.0000000000, 0.0000000000, 0, 0.0199999809, 0.3999999762, 0.5037952065, 0.5271548033, 90.0000000000, 90.0000000000, 90.0000000000, 0.0000000000, -17.9526767731, -19.4169025421, 35.7610015869, 15.7845201492, 12.0599994659, 2, -1, 10, 1, 0
1533757314856, 360856, AUTO, 0, 39.5080228495, -0.4620177426, 0, 7497041.5691276686, 61786.6558914818, 7497296.1712923218, 7497038.9920937875, 61785.3479974749, 0.5116124153, -0.0287979322, 7497041.6658812240, 61784.3053676643, 2.0000000000, 2548.5370264015, 0.0000000000, 0.0000000000, 1510, 1700, 40.0636718333, -88.2012685000, 0.0000000000, 0.0000000000, 1.2748644352, 1.8632634878, -8.6298522949, -0.0745255587, 0.2213077545, -0.1893682305, 2.2017328780, 6.0491365906, 3.0173252961, 0.0000000000, 0.0000000000, 0, 0.0199999809, 0.3999999762, 0.5444446206, 0.4787801802, 90.0000000000, 90.0000000000, 90.0000000000, 0.0000000000, -17.9526767731, -19.1622543335, 35.7610015869, 15.7845201492, 12.0599994659, 2, -1, 10, 1, 0
1533757315057, 361057, AUTO, 0, 39.5080228495, -0.4620177426, 0, 7497041.5691276686, 61786.6558914818, 7497296.1712923218, 7497038.9920937875, 61785.3479974749, 0.5197974443, -0.0287979322, 7497041.6658812240, 61784.3053676643, 2.0000000000, 2548.5370264015, 0.0000000000, 0.0000000000, 1460, 1700, 40.0636718333, -88.2012685000, 0.0000000000, 0.0000000000, -0.4903325140, -1.2748644352, -11.0815143585, 0.0075049159, 0.0467748251, 0.1384046067, 2.2067943488, 6.1281999844, 2.9878291891, 0.0000000000, 0.0000000000, 0, -0.0799999833, 0.3999999762, 0.5209010839, 0.5186938643, 90.0000000000, 90.0000000000, 90.0000000000, 0.0000000000, -17.9526767731, -16.4247894287, 35.7610015869, 15.7845201492, 12.0599994659, 2, -1, 10, 1, 0
1533757315257, 361257, AUTO, 0, 39.5080228495, -0.4620177426, 0, 7497041.5691276686, 61786.6558914818, 7497296.1712923218, 7497038.9920937875, 61785.3479974749, 0.5151071548, -0.0287979322, 7497041.6658812240, 61784.3053676643, 2.0000000000, 2548.5370264015, 0.0000000000, 0.0000000000, 1520, 1700, 40.0636718333, -88.2012685000, 0.0000000000, 0.0000000000, -0.0980665013, -0.3922660053, -7.1588544846, -0.3171263264, -0.1127482703, 0.1425934012, 2.2643902674, 6.1175537316, 3.0164525782, 0.0000000000, 0.0000000000, 0, 0.0399999619, 0.3999999762, 0.4877929389, 0.5424213409, 90.0000000000, 90.0000000000, 90.0000000000, 0.0000000000, -17.9526767731, -17.2523956299, 35.7610015869, 15.7845201492, 12.0599994659, 2, -1, 10, 1, 0
1533757315458, 361458, AUTO, 0, 39.5080228495, -0.4620177426, 0, 7497041.5691276686, 61786.6558914818, 7497296.1712923218, 7497038.9920937875, 61785.3479974749, 0.5142794251, -0.0287979322, 7497041.6658812240, 61784.3053676643, 2.0000000000, 2548.5370264015, 0.0000000000, 0.0000000000, 1580, 1700, 40.0636718333, -88.2012685000, 0.0000000000, 0.0000000000, 0.6864655018, 2.2555296421, -19.6133003235, -0.0254818077, -0.8471828349, -0.4075343870, 2.2399554981, 6.0425042542, 3.0127872696, 0.0000000000, 0.0000000000, 0, 0.1599999666, 0.3999999762, 0.4933109581, 0.5352479219, 90.0000000000, 90.0000000000, 90.0000000000, 0.0000000000, -17.9526767731, -20.5628185272, 35.7610015869, 15.7778577805, 22.5900001526, 2, -1, 10, 1, 0
1533757315658, 361658, AUTO, 0, 39.5080228495, -0.4620177426, 0, 7497039.9312604219, 61788.6485118365, 7497294.5499025313, 7497038.4135635346, 61785.1626725976, 0.5331326723, -0.6492624951, 7497040.0280139772, 61786.2979880190, 2.0000000000, 2547.4373182800, 0.0000000000, 0.0000000000, 1450, 1700, 40.0636701667, -88.2012606667, 0.0000000000, 0.0000000000, -1.0787315369, 3.9226601124, -7.3549876213, 0.7023205203, 0.5204571776, 0.5714208264, 2.2691024646, 6.0077723725, 2.9918433718, 0.0000000000, 0.0000000000, 0, -0.1000000238, 0.3999999762, 0.4622261226, 0.6040392518, 90.0000000000, 90.0000000000, 90.0000000000, 0.0000000000, -17.9526767731, -15.5971841812, 35.2239990234, 15.7778577805, 22.5900001526, 2, -1, 10, 1, 0
1533757315858, 361858, AUTO, 0, 39.5080228495, -0.4620177426, 0, 7497039.9312604219, 61788.6485118365, 7497294.5499025313, 7497038.4135635346, 61785.1626725976, 0.5109686255, -0.6492624951, 7497040.0280139772, 61786.2979880190, 2.0000000000, 2547.4373182800, 0.0000000000, 0.0000000000, 1520, 1700, 40.0636701667, -88.2012606667, 0.0000000000, 0.0000000000, -1.1767979860, 1.5690640211, -7.4530539513, -0.3799581861, 0.2682571040, -0.2405063663, 2.2704987600, 6.1833524527, 3.0061551995, 0.0000000000, 0.0000000000, 0, 0.0399999619, 0.3999999762, 0.5043470263, 0.5175902247, 90.0000000000, 90.0000000000, 90.0000000000, 0.0000000000, -17.9526767731, -17.8890151978, 35.2239990234, 15.7778577805, 22.5900001526, 2, -1, 10, 1, 0
1533757316059, 362059, AUTO, 0, 39.5080228495, -0.4620177426, 0, 7497039.9312604219, 61788.6485118365, 7497294.5499025313, 7497038.4135635346, 61785.1626725976, 0.5163027048, -0.6492624951, 7497040.0280139772, 61786.2979880190, 2.0000000000, 2547.4373182800, 0.0000000000, 0.0000000000, 1490, 1700, 40.0636701667, -88.2012606667, 0.0000000000, 0.0000000000, 0.8825985193, 2.6477956772, -7.6491866112, -0.0064577183, -0.3916518935, 0.0031415928, 2.2568852131, 6.1004493132, 2.9962066949, 0.0000000000, 0.0000000000, 0, -0.0199999809, 0.3999999762, 0.4872411489, 0.5453643203, 90.0000000000, 90.0000000000, 90.0000000000, 0.0000000000, -17.9526767731, -17.5707054138, 35.2239990234, 15.7778577805, 22.5900001526, 2, -1, 10, 1, 0
1533757316259, 362259, AUTO, 0, 39.5080228495, -0.4620177426, 0, 7497039.9312604219, 61788.6485118365, 7497294.5499025313, 7497038.4135635346, 61785.1626725976, 0.5150151849, -0.6492624951, 7497040.0280139772, 61786.2979880190, 2.0000000000, 2547.4373182800, 0.0000000000, 0.0000000000, 1490, 1700, 40.0636701667, -88.2012606667, 0.0000000000, 0.0000000000, -0.3922660053, 1.8632634878, -10.6892490387, -0.0691150390, 0.0254818077, -0.0851720695, 2.2549653403, 6.1353558982, 2.9848621613, 0.0000000000, 0.0000000000, 0, -0.0199999809, 0.3999999762, 0.4945985079, 0.5354318619, 90.0000000000, 90.0000000000, 90.0000000000, 0.0000000000, -17.9526767731, -16.8704242706, 35.2239990234, 15.7778577805, 22.5900001526, 2, -1, 10, 1, 0
1533757316459, 362459, AUTO, 0, 39.5080228495, -0.4620177426, 0, 7497039.9312604219, 61788.6485118365, 7497294.5499025313, 7497038.4135635346, 61785.1626725976, 0.5117043853, -0.6492624951, 7497040.0280139772, 61786.2979880190, 2.0000000000, 2547.4373182800, 0.0000000000, 0.0000000000, 1530, 1700, 40.0636701667, -88.2012606667, 0.0000000000, 0.0000000000, -1.8632634878, 3.6284606457, -11.0815143585, -0.1181587900, 0.1638864228, 0.0607374583, 2.2841123069, 6.1262803779, 2.9850365984, 0.0000000000, 0.0000000000, 0, 0.0599999428, 0.3999999762, 0.4898162186, 0.5335925221, 90.0000000000, 90.0000000000, 90.0000000000, 0.0000000000, -17.9526767731, -17.4433803558, 35.2239990234, 15.7706956863, 15.3600006104, 2, -1, 10, 1, 0
1533757316660, 362660, AUTO, 0, 39.5080228495, -0.4620177426, 0, 7497039.4209039686, 61786.0450635041, 7497294.0181076461, 7497038.3537254082, 61785.4591924020, 0.5169464350, -0.0511381482, 7497039.5176575240, 61783.6945396866, 2.0000000000, 2548.7794910649, 0.0000000000, 0.0000000000, 1460, 1700, 40.0636728333, -88.2012616667, 0.0000000000, 0.0000000000, 0.0980665013, -0.3922660053, -12.4544448853, -0.1745329252, 0.3480186622, 0.2160717634, 2.3205898906, 6.1419882346, 3.0084239464, 0.0000000000, 0.0000000000, 0, -0.0799999833, 0.3999999762, 0.4995647073, 0.5343282223, 90.0000000000, 90.0000000000, 90.0000000000, 0.0000000000, -17.9526767731, -16.5521144867, 36.2999992371, 15.7706956863, 15.3600006104, 2, -1, 10, 1, 0
1533757316860, 362860, AUTO, 0, 39.5080228495, -0.4620177426, 0, 7497039.4209039686, 61786.0450635041, 7497294.0181076461, 7497038.3537254082, 61785.4591924020, 0.5156589150, -0.0511381482, 7497039.5176575240, 61783.6945396866, 2.0000000000, 2548.7794910649, 0.0000000000, 0.0000000000, 1470, 1700, 40.0636728333, -88.2012616667, 0.0000000000, 0.0000000000, -0.5883989930, 0.5883989930, -10.1989154816, -0.2246238727, -0.2532472785, 0.1937315536, 2.3464206890, 6.1618847111, 3.0143582683, 0.0000000000, 0.0000000000, 0, -0.0600000024, 0.3999999762, 0.4741818011, 0.5571360588, 90.0000000000, 90.0000000000, 90.0000000000, 0.0000000000, -17.9526767731, -16.4247894287, 36.2999992371, 15.7706956863, 15.3600006104, 2, -1, 10, 1, 0
1533757317061, 363061, AUTO, 0, 39.5080228495, -0.4620177426, 0, 7497039.4209039686, 61786.0450635041, 7497294.0181076461, 7497038.3537254082, 61785.4591924020, 0.5151991248, -0.0511381482, 7497039.5176575240, 61783.6945396866, 2.0000000000, 2548.7794910649, 0.0000000000, 0.0000000000, 1500, 1700, 40.0636728333, -88.2012616667, 0.0000000000, 0.0000000000, 1.5690640211, 1.7651970387, -9.5124511719, -0.0607374583, -0.1617920296, -0.2309070520, 2.3575907856, 6.1681681734, 3.0012682989, 0.0000000000, 0.0000000000, 0, 0.0000000000, 0.3999999762, 0.4931270182, 0.5372712016, 90.0000000000, 90.0000000000, 90.0000000000, 0.0000000000, -17.9526767731, -18.5256347656, 36.2999992371, 15.7706956863, 15.3600006104, 2, -1, 10, 1, 0
1533757317261, 363261, AUTO, 0, 39.5080228495, -0.4620177426, 0, 7497039.4209039686, 61786.0450635041, 7497294.0181076461, 7497038.3537254082, 61785.4591924020, 0.5079336762, -0.0511381482, 7497039.5176575240, 61783.6945396866, 2.0000000000, 2548.7794910649, 0.0000000000, 0.0000000000, 1450, 1700, 40.0636728333, -88.2012616667, 0.0000000000, 0.0000000000, 0.3922660053, 4.8052587509, -10.0027828217, -0.1127482703, -0.0404916375, 0.3639011557, 2.3731242052, 6.1716585123, 2.9592058000, 0.0000000000, 0.0000000000, 0, -0.1000000238, 0.3999999762, 0.4898162186, 0.5260511637, 90.0000000000, 90.0000000000, 90.0000000000, 0.0000000000, -17.9526767731, -15.7245073318, 36.2999992371, 15.7706956863, 15.3600006104, 2, -1, 10, 1, 0
1533757317461, 363461, AUTO, 0, 39.5080228495, -0.4620177426, 0, 7497039.4209039686, 61786.0450635041, 7497294.0181076461, 7497038.3537254082, 61785.4591924020, 0.5122561455, -0.0511381482, 7497039.5176575240, 61783.6945396866, 2.0000000000, 2548.7794910649, 0.0000000000, 0.0000000000, 1490, 1700, 40.0636728333, -88.2012616667, 0.0000000000, 0.0000000000, 4.1187930107, 0.4903325140, -7.4530539513, -0.1574287065, 0.1223475846, 0.1085594758, 2.3869121892, 6.2002821677, 3.0087730869, 0.0000000000, 0.0000000000, 0, -0.0199999809, 0.3999999762, 0.4824588299, 0.5420535207, 90.0000000000, 90.0000000000, 90.0000000000, 0.0000000000, -17.9526767731, -16.5521144867, 36.2999992371, 15.7657880783, 9.6100006104, 2, -1, 10, 1, 0
1533757317662, 363662, AUTO, 0, 39.5080228495, -0.4620177426, 0, 7497037.7421641489, 61788.6179038356, 7497292.3606283478, 7497037.7337130969, 61785.3294649875, 0.5150151849, -0.4405210992, 7497037.8389177043, 61786.2673800181, 1.7472461631, 2547.0975395062, 0.0000000000, 0.0000000000, 1520, 1700, 40.0636716667, -88.2012536667, 0.0000000000, 0.0000000000, 0.3922660053, 1.2748644352, -8.3356523514, 0.0745255587, 0.1766273183, -0.0617846549, 2.4312437013, 6.2222734867, 2.9892254845, 0.0000000000, 0.0000000000, 0, 0.0399999619, 0.3999999762, 0.4982771873, 0.5317531824, 90.0000000000, 90.0000000000, 90.0000000000, 0.0000000000, -17.9526767731, -18.0163402557, 35.7610015869, 15.7657880783, 9.6100006104, 2, -1, 10, 1, 0
1533757317862, 363862, AUTO, 0, 39.5080228495, -0.4620177426, 0, 7497037.7421641489, 61788.6179038356, 7497292.3606283478, 7497037.7337130969, 61785.3294649875, 0.4980932474, -0.4405210992, 7497037.8389177043, 61786.2673800181, 1.7472461631, 2547.0975395062, 0.0000000000, 0.0000000000, 1530, 1700, 40.0636716667, -88.2012536667, 0.0000000000, 0.0000000000, 1.5690640211, 2.6477956772, -7.1588544846, -0.1607448248, -0.0265290043, -0.1329940870, 2.4404939250, 6.1706113574, 2.9963811320, 0.0000000000, 0.0000000000, 0, 0.0599999428, 0.3999999762, 0.5117043853, 0.4844821393, 90.0000000000, 90.0000000000, 90.0000000000, 0.0000000000, -17.9526767731, -16.9977474213, 35.7610015869, 15.7657880783, 9.6100006104, 2, -1, 10, 1, 0
1533757318062, 364062, AUTO, 0, 39.5080228495, -0.4620177426, 0, 7497037.7421641489, 61788.6179038356, 7497292.3606283478, 7497037.7337130969, 61785.3294649875, 0.5158429146, -0.4405210992, 7497037.8389177043, 61786.2673800181, 1.7472461631, 2547.0975395062, 0.0000000000, 0.0000000000, 1550, 1700, 40.0636716667, -88.2012536667, 0.0000000000, 0.0000000000, 1.0787315369, 3.5303940773, -8.7279186249, 0.0607374583, 0.0893608557, 0.1267109077, 2.4469515580, 6.2083105331, 2.9555404914, 0.0000000000, 0.0000000000, 0, 0.1000000238, 0.3999999762, 0.5104168057, 0.5212689638, 90.0000000000, 90.0000000000, 90.0000000000, 0.0000000000, -17.9526767731, -18.0799999237, 35.7610015869, 15.7657880783, 9.6100006104, 2, -1, 10, 1, 0
1533757318263, 364263, AUTO, 0, 39.5080228495, -0.4620177426, 0, 7497037.7421641489, 61788.6179038356, 7497292.3606283478, 7497037.7337130969, 61785.3294649875, 0.5057264566, -0.4405210992, 7497037.8389177043, 61786.2673800181, 1.7472461631, 2547.0975395062, 0.0000000000, 0.0000000000, 1510, 1700, 40.0636716667, -88.2012536667, 0.0000000000, 0.0000000000, -0.4903325140, 0.3922660053, -8.8259849548, -0.0031415928, -0.2415535711, 0.1649336110, 2.4582963580, 6.2170371794, 2.9578095047, 0.0000000000, 0.0000000000, 0, 0.0199999809, 0.3999999762, 0.5391104817, 0.4723424911, 90.0000000000, 90.0000000000, 90.0000000000, 0.0000000000, -17.9526767731, -17.1887340546, 35.7610015869, 15.7657880783, 9.6100006104, 2, -1, 10, 1, 0
1533757318464, 364464, AUTO, 0, 39.5080228495, -0.4620177426, 0, 7497037.7421641489, 61788.6179038356, 7497292.3606283478, 7497037.7337130969, 61785.3294649875, 0.5154750347, -0.4405210992, 7497037.8389177043, 61786.2673800181, 1.7472461631, 2547.0975395062, 0.0000000000, 0.0000000000, 1520, 1700, 40.0636716667, -88.2012536667, 0.0000000000, 0.0000000000, 3.9226601124, 0.4903325140, -10.9834480286, -0.2916445020, -0.1415461963, -0.0841248729, 2.4766221021, 6.1948716896, 2.9969049758, 0.0000000000, 0.0000000000, 0, 0.0399999619, 0.3999999762, 0.5508823395, 0.4800677299, 90.0000000000, 90.0000000000, 90.0000000000, 0.0000000000, -17.9526767731, -16.4247894287, 35.7610015869, 15.7702007294, 8.3800001144, 2, -1, 10, 1, 0
1533757318664, 364664, AUTO, 0, 39.5080228495, -0.4620177426, 0, 7497037.3248089990, 61785.9730542868, 7497291.9214904215, 7497037.2150209201, 61784.8476203052, 0.5181420445, 0.2586577898, 7497037.4215625543, 61783.6225304693, 1.5728554334, 2549.1052389150, 0.0000000000, 0.0000000000, 1520, 1700, 40.0636673333, -88.2012448333, 0.0000000000, 0.0000000000, 0.8825985193, 2.8439283371, -8.7279186249, -0.0404916375, -0.0181514236, -0.1947787419, 2.4549801898, 6.1765459455, 2.9974285532, 0.0000000000, 0.0000000000, 0, 0.0399999619, 0.3999999762, 0.5527216196, 0.4835624695, 90.0000000000, 90.0000000000, 90.0000000000, 0.0000000000, -17.9526767731, -18.4619731903, 34.6860008240, 15.7702007294, 8.3800001144, 2, -1, 10, 1, 0
1533757318865, 364865, AUTO, 0, 39.5080228495, -0.4620177426, 0, 7497037.3248089990, 61785.9730542868, 7497291.9214904215, 7497037.2150209201, 61784.8476203052, 0.5049908161, 0.2586577898, 7497037.4215625543, 61783.6225304693, 1.5728554334, 2549.1052389150, 0.0000000000, 0.0000000000, 1450, 1700, 40.0636673333, -88.2012448333, 0.0000000000, 0.0000000000, 0.5883989930, 3.1381280422, -11.3757133484, 0.0319395261, -0.5417502158, -0.0041887901, 2.4640557101, 6.1744511030, 2.9564132093, 0.0000000000, 0.0000000000, 0, -0.1000000238, 0.3999999762, 0.5871173143, 0.4228642583, 90.0000000000, 90.0000000000, 90.0000000000, 0.0000000000, -17.9526767731, -16.2974662781, 34.6860008240, 15.7702007294, 8.3800001144, 2, -1, 10, 1, 0
1533757319065, 365065, AUTO, 0, 39.5080228495, -0.4620177426, 0, 7497037.3248089990, 61785.9730542868, 7497291.9214904215, 7497037.2150209201, 61784.8476203052, 0.5083935261, 0.2586577898, 7497037.4215625543, 61783.6225304693, 1.5728554334, 2549.1052389150, 0.0000000000, 0.0000000000, 1540, 1700, 40.0636673333, -88.2012448333, 0.0000000000, 0.0000000000, -0.5883989930, -1.7651970387, -7.7472538948, -0.0223402139, 0.4799655443, 0.2064724492, 2.4361306019, 6.1540310491, 3.0187215914, 0.0000000000, 0.0000000000, 0, 0.0800000429, 0.3999999762, 0.5111525655, 0.5056345463, 90.0000000000, 90.0000000000, 90.0000000000, 0.0000000000, -17.9526767731, -16.2974662781, 34.6860008240, 15.7702007294, 8.3800001144, 2, -1, 10, 1, 0
1533757319266, 365266, AUTO, 0, 39.5080228495, -0.4620177426, 0, 7497037.3248089990, 61785.9730542868, 7497291.9214904215, 7497037.2150209201, 61784.8476203052, 0.5123481750, 0.2586577898, 7497037.4215625543, 61783.6225304693, 1.5728554334, 2549.1052389150, 0.0000000000, 0.0000000000, 1510, 1700, 40.0636673333, -88.2012448333, 0.0000000000, 0.0000000000, 1.4709975719, -1.6671304703, -8.1395196915, 0.1127482703, -0.1713913272, -0.4033456008, 2.4436353898, 6.2135468405, 3.0251792244, 0.0000000000, 0.0000000000, 0, 0.0199999809, 0.3999999762, 0.5131758451, 0.5115204453, 90.0000000000, 90.0000000000, 90.0000000000, 0.0000000000, -17.9526767731, -17.2523956299, 34.6860008240, 15.7702007294, 8.3800001144, 2, -1, 10, 1, 0
1533757319466, 365466, AUTO, 0, 39.5080228495, -0.4620177426, 0, 7497037.3248089990, 61785.9730542868, 7497291.9214904215, 7497037.2150209201, 61784.8476203052, 0.5205332041, 0.2586577898, 7497037.4215625543, 61783.6225304693, 1.5728554334, 2549.1052389150, 0.0000000000, 0.0000000000, 1510, 1700, 40.0636673333, -88.2012448333, 0.0000000000, 0.0000000000, 1.1767979860, 3.3342609406, -9.6105175018, 0.2202605496, -0.1926843488, 0.0628318514, 2.4511404441, 6.1800362845, 2.9900982023, 0.0000000000, 0.0000000000, 0, 0.0199999809, 0.3999999762, 0.5455482006, 0.4955181479, 90.0000000000, 90.0000000000, 90.0000000000, 0.0000000000, -17.9526767731, -14.9605646133, 34.6860008240, 15.7695255280, 10.3100004196, 2, -1, 10, 1, 0
1533757319667, 365667, AUTO, 0, 39.5080228495, -0.4620177426, 0, 7497035.8380608819, 61787.9650973061, 7497290.4512096960, 7497036.5657446142, 61785.5333223529, 0.5171304345, 0.1596976199, 7497035.9348144373, 61785.6145734886, 1.0103188650, 2546.5331559114, 0.0000000000, 0.0000000000, 1510, 1700, 40.0636735000, -88.2012411667, 0.0000000000, 0.0000000000, -0.5883989930, 1.0787315369, -12.6505784988, -0.3022910211, -0.0797615498, -0.1989675281, 2.4499185858, 6.0882317954, 3.0298916880, 0.0000000000, 0.0000000000, 0, 0.0199999809, 0.3999999762, 0.5227404237, 0.5115204453, 90.0000000000, 90.0000000000, 90.0000000000, 0.0000000000, -17.9526767731, -16.8067607880, 35.2239990234, 15.7695255280, 10.3100004196, 2, -1, 10, 1, 0
1533757319867, 365867, AUTO, 0, 39.5080228495, -0.4620177426, 0, 7497035.8380608819, 61787.9650973061, 7497290.4512096960, 7497036.5657446142, 61785.5333223529, 0.5162107348, 0.1596976199, 7497035.9348144373, 61785.6145734886, 1.0103188650, 2546.5331559114, 0.0000000000, 0.0000000000, 1500, 1700, 40.0636735000, -88.2012411667, 0.0000000000, 0.0000000000, 0.5883989930, 0.8825985193, -8.9240512848, -0.2436479642, 0.3714060768, 0.2064724492, 2.4659755830, 6.2184337411, 2.9972538499, 0.0000000000, 0.0000000000, 0, 0.0000000000, 0.3999999762, 0.5021398067, 0.5302816629, 90.0000000000, 90.0000000000, 90.0000000000, 0.0000000000, -17.9526767731, -16.1064815521, 35.2239990234, 15.7695255280, 10.3100004196, 2, -1, 10, 1, 0
1533757320067, 366067, AUTO, 0, 39.5080228495, -0.4620177426, 0, 7497035.8380608819, 61787.9650973061, 7497290.4512096960, 7497036.5657446142, 61785.5333223529, 0.5134516954, 0.1596976199, 7497035.9348144373, 61785.6145734886, 1.0103188650, 2546.5331559114, 0.0000000000, 0.0000000000, 1480, 1700, 40.0636735000, -88.2012411667, 0.0000000000, 0.0000000000, 0.1961330026, 1.3729310036, -8.7279186249, 0.1171115935, -0.1361356850, -0.1267109077, 2.4808109881, 6.1744511030, 3.0323351383, 0.0000000000, 0.0000000000, 0, -0.0400000215, 0.3999999762, 0.5291780829, 0.4977253675, 90.0000000000, 90.0000000000, 90.0000000000, 0.0000000000, -17.9526767731, -15.7245073318, 35.2239990234, 15.7695255280, 10.3100004196, 2, -1, 10, 1, 0
1533757320268, 366268, AUTO, 0, 39.5080228495, -0.4620177426, 0, 7497035.8380608819, 61787.9650973061, 7497290.4512096960, 7497036.5657446142, 61785.5333223529, 0.5114284754, 0.1596976199, 7497035.9348144373, 61785.6145734886, 1.0103188650, 2546.5331559114, 0.0000000000, 0.0000000000, 1500, 1700, 40.0636735000, -88.2012411667, 0.0000000000, 0.0000000000, 0.5883989930, 0.7845320106, -12.3563785553, 0.0766199518, 0.2841396142, -0.2181661565, 2.4638812731, 6.2104048430, 3.0063296366, 0.0000000000, 0.0000000000, 0, 0.0000000000, 0.3999999762, 0.5151990652, 0.5076578259, 90.0000000000, 90.0000000000, 90.0000000000, 0.0000000000, -17.9526767731, -16.5521144867, 35.2239990234, 15.7695255280, 10.3100004196, 2, -1, 10, 1, 0
1533757320468, 366468, AUTO, 0, 39.5080228495, -0.4620177426, 0, 7497035.8380608819, 61787.9650973061, 7497290.4512096960, 7497036.5657446142, 61785.5333223529, 0.5096810460, 0.1596976199, 7497035.9348144373, 61785.6145734886, 1.0103188650, 2546.5331559114, 0.0000000000, 0.0000000000, 1500, 1700, 40.0636735000, -88.2012411667, 0.0000000000, 0.0000000000, 0.9806650281, 2.4516625404, -11.5718469620, -0.0883136592, 0.0137881015, 0.2586577898, 2.4773203829, 6.1529838941, 3.0150562828, 0.0000000000, 0.0000000000, 0, 0.0000000000, 0.3999999762, 0.4933109581, 0.5260511637, 90.0000000000, 90.0000000000, 90.0000000000, 0.0000000000, -17.9526767731, -16.8067607880, 35.2239990234, 15.7637538910, 7.1800003052, 2, -1, 10, 1, 0
1533757320668, 366668, AUTO, 0, 39.5080228495, -0.4620177426, 0, 7497035.2061284808, 61787.2337700378, 7497289.8132716510, 7497035.7308739135, 61785.3479974749, 0.5150151253, 0.1521927154, 7497035.3028820362, 61784.8832462203, 0.6911452604, 2550.3619849542, 0.0000000000, 0.0000000000, 1520, 1700, 40.0636718333, -88.2012303333, 0.0000000000, 0.0000000000, -1.2748644352, 1.4709975719, -11.1795806885, -0.2298598638, -0.2129301654, -0.1394518032, 2.4736550743, 6.1880646499, 2.9946359625, 0.0000000000, 0.0000000000, 0, 0.0399999619, 0.3999999762, 0.4957020879, 0.5343282223, 90.0000000000, 90.0000000000, 90.0000000000, 0.0000000000, -17.9526767731, -17.2523956299, 36.2999992371, 15.7637538910, 7.1800003052, 2, -1, 10, 1, 0
1533757320869, 366869, AUTO, 0, 39.5080228495, -0.4620177426, 0, 7497035.2061284808, 61787.2337700378, 7497289.8132716510, 7497035.7308739135, 61785.3479974749, 0.5136356950, 0.1521927154, 7497035.3028820362, 61784.8832462203, 0.6911452604, 2550.3619849542, 0.0000000000, 0.0000000000, 1470, 1700, 40.0636718333, -88.2012303333, 0.0000000000, 0.0000000000, 0.3922660053, -0.5883989930, -9.5124511719, -0.0808087464, -0.2000147329, -0.1480039126, 2.4764476650, 6.2119761081, 2.9890507811, 0.0000000000, 0.0000000000, 0, -0.0600000024, 0.3999999762, 0.5280745029, 0.4991968572, 90.0000000000, 90.0000000000, 90.0000000000, 0.0000000000, -17.9526767731, -16.7431011200, 36.2999992371, 15.7637538910, 7.1800003052, 2, -1, 10, 1, 0
1533757321069, 367069, AUTO, 0, 39.5080228495, -0.4620177426, 0, 7497035.2061284808, 61787.2337700378, 7497289.8132716510, 7497035.7308739135, 61785.3479974749, 0.5173143148, 0.1521927154, 7497035.3028820362, 61784.8832462203, 0.6911452604, 2550.3619849542, 0.0000000000, 0.0000000000, 1500, 1700, 40.0636718333, -88.2012303333, 0.0000000000, 0.0000000000, -0.3922660053, -1.0787315369, -6.2762560844, 0.1851794276, -0.1670280041, 0.0532325414, 2.4736550743, 6.2060415199, 2.9843385839, 0.0000000000, 0.0000000000, 0, 0.0000000000, 0.3999999762, 0.5339604020, 0.5006682873, 90.0000000000, 90.0000000000, 90.0000000000, 0.0000000000, -17.9526767731, -18.7802829742, 36.2999992371, 15.7637538910, 7.1800003052, 2, -1, 10, 1, 0
1533757321270, 367270, AUTO, 0, 39.5080228495, -0.4620177426, 0, 7497035.2061284808, 61787.2337700378, 7497289.8132716510, 7497035.7308739135, 61785.3479974749, 0.5143713951, 0.1521927154, 7497035.3028820362, 61784.8832462203, 0.6911452604, 2550.3619849542, 0.0000000000, 0.0000000000, 1490, 1700, 40.0636718333, -88.2012303333, 0.0000000000, 0.0000000000, 0.4903325140, 0.6864655018, -10.3950481415, 0.1213003797, -0.2480112874, -0.2799508280, 2.4846507338, 6.2248913741, 2.9688051642, 0.0000000000, 0.0000000000, 0, -0.0199999809, 0.3999999762, 0.4991968572, 0.5295459628, 90.0000000000, 90.0000000000, 90.0000000000, 0.0000000000, -17.9526767731, -19.9261989594, 36.2999992371, 15.7637538910, 7.1800003052, 2, -1, 10, 1, 0
1533757321470, 367470, AUTO, 0, 39.5080228495, -0.4620177426, 0, 7497035.2061284808, 61787.2337700378, 7497289.8132716510, 7497035.7308739135, 61785.3479974749, 0.5184179544, 0.1521927154, 7497035.3028820362, 61784.8832462203, 0.6911452604, 2550.3619849542, 0.0000000000, 0.0000000000, 1480, 1700, 40.0636718333, -88.2012303333, 0.0000000000, 0.0000000000, -1.1767979860, -0.4903325140, -10.4931163788, -0.3522074484, 0.2480112874, -0.2085668423, 2.5099579547, 6.1884140566, 2.9647907151, 0.0000000000, 0.0000000000, 0, -0.0400000215, 0.3999999762, 0.4723424911, 0.5644934177, 90.0000000000, 90.0000000000, 90.0000000000, 0.0000000000, -17.9526767731, -18.0163402557, 36.2999992371, 15.7526760101, 6.3499999046, 2, -1, 10, 1, 0
1533757321670, 367670, AUTO, 0, 39.5080228495, -0.4620177426, 0, 7497037.6822177088, 61785.5776028891, 7497292.2756280480, 7497035.2379858326, 61784.9588152315, 0.5115204453, -0.2745402833, 7497037.7789712641, 61783.2270790716, -0.0000000000, 2547.4210907500, 0.0000000000, 0.0000000000, 1440, 1700, 40.0636683333, -88.2012223333, 0.0000000000, 0.0000000000, -0.2941994965, 3.1381280422, -7.9433865547, -0.3043854309, -0.1127482703, 0.2033308512, 2.5399776391, 6.1227895063, 2.9595549404, 0.0000000000, 0.0000000000, 0, -0.1200000048, 0.3999999762, 0.4738139808, 0.5492268801, 90.0000000000, 90.0000000000, 90.0000000000, 0.0000000000, -17.9526767731, -19.9261989594, 36.2999992371, 15.7526760101, 6.3499999046, 2, -1, 10, 1, 0
1533757321871, 367871, AUTO, 0, 39.5080228495, -0.4620177426, 0, 7497037.6822177088, 61785.5776028891, 7497292.2756280480, 7497035.2379858326, 61784.9588152315, 0.5208091140, -0.2745402833, 7497037.7789712641, 61783.2270790716, -0.0000000000, 2547.4210907500, 0.0000000000, 0.0000000000, 1480, 1700, 40.0636683333, -88.2012223333, 0.0000000000, 0.0000000000, -1.7651970387, 0.7845320106, -10.4931163788, -0.1394518032, -0.8087855780, -0.1415461963, 2.5466099755, 6.0449479708, 2.9569367868, 0.0000000000, 0.0000000000, 0, -0.0400000215, 0.3999999762, 0.4881608188, 0.5534573793, 90.0000000000, 90.0000000000, 90.0000000000, 0.0000000000, -17.9526767731, -21.3267612457, 36.2999992371, 15.7526760101, 6.3499999046, 2, -1, 10, 1, 0
1533757322071, 368071, AUTO, 0, 39.5080228495, -0.4620177426, 0, 7497037.6822177088, 61785.5776028891, 7497292.2756280480, 7497035.2379858326, 61784.9588152315, 0.5126240253, -0.2745402833, 7497037.7789712641, 61783.2270790716, -0.0000000000, 2547.4210907500, 0.0000000000, 0.0000000000, 1520, 1700, 40.0636683333, -88.2012223333, 0.0000000000, 0.0000000000, 0.4903325140, 2.8439283371, -11.8660469055, -0.1649336110, 0.5843362256, 0.0680678425, 2.5380577663, 6.1535074716, 2.9375636214, 0.0000000000, 0.0000000000, 0, 0.0399999619, 0.3999999762, 0.4506382942, 0.5746098161, 90.0000000000, 90.0000000000, 90.0000000000, 0.0000000000, -17.9526767731, -19.1622543335, 36.2999992371, 15.7526760101, 6.3499999046, 2, -1, 10, 1, 0
1533757322271, 368271, AUTO, 0, 39.5080228495, -0.4620177426, 0, 7497037.6822177088, 61785.5776028891, 7497292.2756280480, 7497035.2379858326, 61784.9588152315, 0.5054506063, -0.2745402833, 7497037.7789712641, 61783.2270790716, -0.0000000000, 2547.4210907500, 0.0000000000, 0.0000000000, 1480, 1700, 40.0636683333, -88.2012223333, 0.0000000000, 0.0000000000, -0.1961330026, 2.5497288704, -9.7085838318, -0.1574287065, 0.3532546366, 0.0298451309, 2.5897196293, 6.1899847890, 2.9597293775, 0.0000000000, 0.0000000000, 0, -0.0400000215, 0.3999999762, 0.4565241635, 0.5543770790, 90.0000000000, 90.0000000000, 90.0000000000, 0.0000000000, -17.9526767731, -19.6078891754, 36.2999992371, 15.7526760101, 6.3499999046, 2, -1, 10, 1, 0
1533757322472, 368472, AUTO, 0, 39.5080228495, -0.4620177426, 0, 7497037.6822177088, 61785.5776028891, 7497292.2756280480, 7497035.2379858326, 61784.9588152315, 0.5136356354, -0.2745402833, 7497037.7789712641, 61783.2270790716, -0.0000000000, 2547.4210907500, 0.0000000000, 0.0000000000, 1460, 1700, 40.0636683333, -88.2012223333, 0.0000000000, 0.0000000000, 2.1574630737, 3.0400614738, -10.3950481415, -0.0244346091, -0.1171115935, 0.1425934012, 2.6028095987, 6.1912066473, 2.9550169139, 0.0000000000, 0.0000000000, 0, -0.0799999833, 0.3999999762, 0.4881608188, 0.5391104817, 90.0000000000, 90.0000000000, 90.0000000000, 0.0000000000, -17.9526767731, -19.3532409668, 36.2999992371, 15.7476291656, 8.4799995422, 2, -1, 10, 1, 0
1533757322672, 368672, AUTO, 0, 39.5080228495, -0.4620177426, 0, 7497038.5276451642, 61787.7519919142, 7497293.1389463609, 7497035.1541711660, 61784.6066979643, 0.5140035152, -0.0361283144, 7497038.6243987195, 61785.4014680967, 1.2054367525, 2546.7073677667, 0.0000000000, 0.0000000000, 1480, 1700, 40.0636651667, -88.2012193333, 0.0000000000, 0.0000000000, 1.4709975719, 0.6864655018, -12.2583122253, 0.0584685283, 0.1446877943, 0.0607374583, 2.6134561178, 6.2323961620, 2.9454175498, 0.0000000000, 0.0000000000, 0, -0.0400000215, 0.3999999762, 0.5028755069, 0.5251315832, 90.0000000000, 90.0000000000, 90.0000000000, 0.0000000000, -17.9526767731, -19.2259178162, 35.7610015869, 15.7476291656, 8.4799995422, 2, -1, 10, 1, 0
1533757322873, 368873, AUTO, 0, 39.5080228495, -0.4620177426, 0, 7497038.5276451642, 61787.7519919142, 7497293.1389463609, 7497035.1541711660, 61784.6066979643, 0.5179581642, -0.0361283144, 7497038.6243987195, 61785.4014680967, 1.2054367525, 2546.7073677667, 0.0000000000, 0.0000000000, 1500, 1700, 40.0636651667, -88.2012193333, 0.0000000000, 0.0000000000, -0.0000000000, 3.2361946106, -11.0815143585, -0.4310963386, -0.0277507357, 0.0350811178, 2.6438246764, 6.1960935479, 2.9544933365, 0.0000000000, 0.0000000000, 0, 0.0000000000, 0.3999999762, 0.5021398067, 0.5337764621, 90.0000000000, 90.0000000000, 90.0000000000, 0.0000000000, -17.9526767731, -18.4619731903, 35.7610015869, 15.7476291656, 8.4799995422, 2, -1, 10, 1, 0
1533757323073, 369073, AUTO, 0, 39.5080228495, -0.4620177426, 0, 7497038.5276451642, 61787.7519919142, 7497293.1389463609, 7497035.1541711660, 61784.6066979643, 0.5156589746, -0.0361283144, 7497038.6243987195, 61785.4014680967, 1.2054367525, 2546.7073677667, 0.0000000000, 0.0000000000, 1520, 1700, 40.0636651667, -88.2012193333, 0.0000000000, 0.0000000000, 1.1767979860, 1.2748644352, -11.1795806885, 0.4427900459, 0.5885250451, 0.1192059866, 2.6687830231, 6.2191314893, 2.9691540383, 0.0000000000, 0.0000000000, 0, 0.0399999619, 0.3999999762, 0.5203492641, 0.5109686255, 90.0000000000, 90.0000000000, 90.0000000000, 0.0000000000, -17.9526767731, -18.7166213989, 35.7610015869, 15.7476291656, 8.4799995422, 2, -1, 10, 1, 0
1533757323274, 369274, AUTO, 0, 39.5080228495, -0.4620177426, 0, 7497038.5276451642, 61787.7519919142, 7497293.1389463609, 7497035.1541711660, 61784.6066979643, 0.5152910948, -0.0361283144, 7497038.6243987195, 61785.4014680967, 1.2054367525, 2546.7073677667, 0.0000000000, 0.0000000000, 1420, 1700, 40.0636651667, -88.2012193333, 0.0000000000, 0.0000000000, 1.4709975719, 3.8245933056, -12.2583122253, -0.2033308512, -0.8375835373, 0.3926990817, 2.6675611648, 6.2550857619, 2.9487337180, 0.0000000000, 0.0000000000, 0, -0.1600000262, 0.3999999762, 0.5326728225, 0.4979093075, 90.0000000000, 90.0000000000, 90.0000000000, 0.0000000000, -17.9526767731, -17.5707054138, 35.7610015869, 15.7476291656, 8.4799995422, 2, -1, 10, 1, 0
1533757323474, 369474, AUTO, 0, 39.5080228495, -0.4620177426, 0, 7497038.5276451642, 61787.7519919142, 7497293.1389463609, 7497035.1541711660, 61784.6066979643, 0.5166705847, -0.0361283144, 7497038.6243987195, 61785.4014680967, 1.2054367525, 2546.7073677667, 0.0000000000, 0.0000000000, 1530, 1700, 40.0636651667, -88.2012193333, 0.0000000000, 0.0000000000, 1.0787315369, -1.1767979860, -3.5303940773, -0.0628318514, 0.7204718939, 0.1692969341, 2.6895524838, 0.0165806277, 2.9822440077, 0.0000000000, 0.0000000000, 0, 0.0599999428, 0.3999999762, 0.5048987865, 0.5284423828, 90.0000000000, 90.0000000000, 90.0000000000, 0.0000000000, -17.9526767731, -16.9977474213, 35.7610015869, 15.7477664948, 10.7500000000, 2, -1, 10, 1, 0
