(0)linux time (ms),    (1)uptime  (ms),      (2)drive mode,(3)mpc step counter,(4)mpc origin latitude  (deg),(5)mpc origin longitude  (deg),(6)closest trajectory point index to robot,(7)mpc error x (W;E)  (m),(8)mpc error y (W;E)  (m),(9)abs mpc error (m),(10)input [x] for mhe (m),(11)input [y] for mhe (m),(12)input [speed] for mhe (m/s),(13)input [vyaw] for mhe (rad/s),(14)mhe output x  (m),(15)mhe output y  (m),(16)mhe output speed  (m/s),(17)mhe output yaw  (rad),(18)mpc reference heading (rad),(19)mpc turn rate command (rad/s),(20)turn rate command as PWM,(21)throttle command as PWM,(22)primary gps latitude (deg),(23)primary gps longitude (deg),(24)secondary gps latitude  (deg),(25)secondary gps longitude (deg),(26)accelerometer x (m/s^2),(27)accelerometer y (m/s^2),(28)accelerometer z (m/s^2),(29)gyro yaw rate (rad/s),(30)gyro pitch rate   (rad/s),(31)gyro roll rate (rad/s),      (32)yaw (rad),  (33)pitch   (rad),     (34)roll (rad),(35)sonar1 measurement (m),(36)ultrasonic sensor measurement (m),(37)primary gps time (s),(38)normalized turn rate command,(39)normalized throttle command,(40)speed calculation from encoder left (m/s),(41)speed calculation from encoder right (m/s),(42)front gimbal target angle (degrees from straight down),(43)left gimbal target angle  (degrees from straight down),(44)right gimbal target angle  (degrees from straight down),(45)front gimbal measured angle  (degrees from straight down),(46)left gimbal measured angle    (degrees from straight down),(47)right gimbal measured angle  (degrees from straight down),(48)internal temperature (C),(49)battery voltage (V),(50)primary gps type,(51)secondary gps type,    (52)MPC R value, (53)MPC Q[0] value,

1535723224238, 233238, AUTO, 0, 40.1021172980, -88.2267727495, 0, -1631.3802742821, -4275.3114021352, 4575.9905140356, -1633.7359055323, -4273.7545442092, 0.2312969863, 0.0000000000, -1633.7745604972, -4275.3349876576, -0.0000000000, 3.5092549993, 0.0000000000, 0.0000000000, 1500, 1610, 40.0636825000, -88.2075696667, 0.0000000000, 0.0000000000, 0.0000000000, 0.0000000000, 0.0000000000, 0.0000000000, 0.0000000000, 0.0000000000, 0.0000000000, 0.0000000000, 0.0000000000, 0.0000000000, 0.0000000000, 0, 0.0000000000, 0.2200000286, 0.1992005110, 0.2633934617, 84.0000000000, 81.0000000000, 39.0000000000, 101.5408554077, 105.0422668457, 145.7222595215, 30.9199981689, 15.5614261627, 1.0199999809, 2, -1, 10, 1, 4
1535723224438, 233438, AUTO, 0, 40.1021172980, -88.2267727495, 0, -1631.3802742821, -4275.3114021352, 4575.9905140356, -1633.7359055323, -4273.7545442092, 0.2250432372, 0.0000000000, -1633.7745604972, -4275.3349876576, -0.0000000000, 3.5092549993, 0.0000000000, 0.0000000000, 1550, 1610, 40.0636825000, -88.2075696667, 0.0000000000, 0.0000000000, 0.0000000000, 0.0000000000, 0.0000000000, 0.0000000000, 0.0000000000, 0.0000000000, 0.0000000000, 0.0000000000, 0.0000000000, 0.0000000000, 0.0000000000, 0, 0.1000000238, 0.2200000286, 0.2098686844, 0.2402177900, 84.0000000000, 81.0000000000, 39.0000000000, 101.1588821411, 105.1059188843, 146.9955139160, 30.9199981689, 15.5614261627, 1.0199999809, 2, -1, 10, 1, 4
1535723224639, 233639, AUTO, 0, 40.1021172980, -88.2267727495, 0, -1631.3802742821, -4275.3114021352, 4575.9905140356, -1633.7359055323, -4273.7545442092, 0.2385623753, 0.0000000000, -1633.7745604972, -4275.3349876576, -0.0000000000, 3.5092549993, 0.0000000000, 0.0000000000, 1550, 1610, 40.0636825000, -88.2075696667, 0.0000000000, 0.0000000000, 0.0000000000, 0.0000000000, 0.0000000000, 0.0000000000, 0.0000000000, 0.0000000000, 0.0000000000, 0.0000000000, 0.0000000000, 0.0000000000, 0.0000000000, 0, 0.1000000238, 0.2200000286, 0.2216404527, 0.2554843128, 84.0000000000, 81.0000000000, 39.0000000000, 101.7955017090, 103.9600067139, 147.6321258545, 31.9959983826, 15.5537166595, 17.9200000763, 2, -1, 10, 1, 4
1535723224839, 233839, AUTO, 0, 40.1021172980, -88.2267727495, 0, -1631.3802742821, -4275.3114021352, 4575.9905140356, -1633.7359055323, -4273.7545442092, 0.2721303105, 0.0000000000, -1633.7745604972, -4275.3349876576, -0.0000000000, 3.5092549993, 0.0000000000, 0.0000000000, 1490, 1610, 40.0636825000, -88.2075696667, 0.0000000000, 0.0000000000, 0.0000000000, 0.0000000000, 0.0000000000, 0.0000000000, 0.0000000000, 0.0000000000, 0.0000000000, 0.0000000000, 0.0000000000, 0.0000000000, 0.0000000000, 0, -0.0199999809, 0.2200000286, 0.2841779888, 0.2600826621, 84.0000000000, 81.0000000000, 39.0000000000, 100.9042358398, 105.1059188843, 146.1042327881, 31.9959983826, 15.5537166595, 17.9200000763, 2, -1, 10, 1, 4
1535723225040, 234040, AUTO, 0, 40.1021172980, -88.2267727495, 0, -1631.3802742821, -4275.3114021352, 4575.9905140356, -1633.7359055323, -4273.7545442092, 0.2587031722, 0.0000000000, -1633.7745604972, -4275.3349876576, -0.0000000000, 3.5092549993, 0.0000000000, 0.0000000000, 1360, 1610, 40.0636825000, -88.2075696667, 0.0000000000, 0.0000000000, 0.0000000000, 0.0000000000, 0.0000000000, 0.0000000000, 0.0000000000, 0.0000000000, 0.0000000000, 0.0000000000, 0.0000000000, 0.0000000000, 0.0000000000, 0, -0.2799999714, 0.2200000286, 0.2473912239, 0.2700150907, 84.0000000000, 81.0000000000, 39.0000000000, 102.1138153076, 104.5329666138, 146.3588867188, 31.9959983826, 15.5537166595, 17.9200000763, 2, -1, 10, 1, 4
1535723225240, 234240, AUTO, 0, 40.1021172980, -88.2267727495, 0, -1631.3802742821, -4275.3114021352, 4575.9905140356, -1633.7359055323, -4273.7545442092, 0.2435286045, 0.0000000000, -1633.7745604972, -4275.3349876576, -0.0000000000, 3.5092549993, 0.0000000000, 0.0000000000, 1570, 1610, 40.0636825000, -88.2075696667, 0.0000000000, 0.0000000000, 0.0000000000, 0.0000000000, 0.0000000000, 0.0000000000, 0.0000000000, 0.0000000000, 0.0000000000, 0.0000000000, 0.0000000000, 0.0000000000, 0.0000000000, 0, 0.1399999857, 0.2200000286, 0.2015916556, 0.2854655683, 84.0000000000, 81.0000000000, 39.0000000000, 101.3498611450, 103.5780334473, 147.3138275146, 31.9959983826, 15.5537166595, 17.9200000763, 2, -1, 10, 1, 4
1535723225440, 234440, AUTO, 0, 40.1021172980, -88.2267727495, 0, -1631.3802742821, -4275.3114021352, 4575.9905140356, -1633.7359055323, -4273.7545442092, 0.2811431289, 0.0000000000, -1633.7745604972, -4275.3349876576, -0.0000000000, 3.5092549993, 0.0000000000, 0.0000000000, 1500, 1610, 40.0636825000, -88.2075696667, 0.0000000000, 0.0000000000, 0.0000000000, 0.0000000000, 0.0000000000, 0.0000000000, 0.0000000000, 0.0000000000, 0.0000000000, 0.0000000000, 0.0000000000, 0.0000000000, 0.0000000000, 0, 0.0000000000, 0.2200000286, 0.2816029489, 0.2806832790, 84.0000000000, 81.0000000000, 39.0000000000, 101.2225418091, 104.7876129150, 146.4225463867, 31.9959983826, 15.5479154587, 9.5399999619, 2, -1, 10, 1, 4
1535723225641, 234641, AUTO, 0, 40.1021172980, -88.2267727495, 0, -1631.3802742821, -4275.3114021352, 4575.9905140356, -1633.7359055323, -4273.7545442092, 0.2831663787, 0.0000000000, -1633.7745604972, -4275.3349876576, -0.0000000000, 3.5092549993, 0.0000000000, 0.0000000000, 1480, 1610, 40.0636825000, -88.2075696667, 0.0000000000, 0.0000000000, 0.0000000000, 0.0000000000, 0.0000000000, 0.0000000000, 0.0000000000, 0.0000000000, 0.0000000000, 0.0000000000, 0.0000000000, 0.0000000000, 0.0000000000, 0, -0.0400000215, 0.2200000286, 0.2637613416, 0.3025714159, 84.0000000000, 81.0000000000, 39.0000000000, 100.7769088745, 103.7053604126, 147.7594451904, 31.4580001831, 15.5479154587, 9.5399999619, 2, -1, 10, 1, 4
1535723225842, 234842, AUTO, 0, 40.1021172980, -88.2267727495, 0, -1631.3802742821, -4275.3114021352, 4575.9905140356, -1633.7359055323, -4273.7545442092, 0.2672560811, 0.0000000000, -1633.7745604972, -4275.3349876576, -0.0000000000, 3.5092549993, 0.0000000000, 0.0000000000, 1480, 1610, 40.0636825000, -88.2075696667, 0.0000000000, 0.0000000000, 0.0000000000, 0.0000000000, 0.0000000000, 0.0000000000, 0.0000000000, 0.0000000000, 0.0000000000, 0.0000000000, 0.0000000000, 0.0000000000, 0.0000000000, 0, -0.0400000215, 0.2200000286, 0.2479430139, 0.2865691483, 84.0000000000, 81.0000000000, 39.0000000000, 100.4586029053, 104.0236740112, 147.1864929199, 31.4580001831, 15.5479154587, 9.5399999619, 2, -1, 10, 1, 4
1535723226042, 235042, AUTO, 0, 40.1021172980, -88.2267727495, 0, -1631.3802742821, -4275.3114021352, 4575.9905140356, -1633.7359055323, -4273.7545442092, 0.2378266454, 0.0000000000, -1633.7745604972, -4275.3349876576, -0.0000000000, 3.5092549993, 0.0000000000, 0.0000000000, 1500, 1610, 40.0636825000, -88.2075696667, 0.0000000000, 0.0000000000, 0.0000000000, 0.0000000000, 0.0000000000, 0.0000000000, 0.0000000000, 0.0000000000, 0.0000000000, 0.0000000000, 0.0000000000, 0.0000000000, 0.0000000000, 0, 0.0000000000, 0.2200000286, 0.2589790523, 0.2166742384, 84.0000000000, 81.0000000000, 39.0000000000, 101.0315551758, 105.3605728149, 145.5312805176, 31.4580001831, 15.5479154587, 9.5399999619, 2, -1, 10, 1, 4
1535723226243, 235243, AUTO, 0, 40.1021172980, -88.2267727495, 0, -1631.3802742821, -4275.3114021352, 4575.9905140356, -1633.7359055323, -4273.7545442092, 0.2518056333, 0.0000000000, -1633.7745604972, -4275.3349876576, -0.0000000000, 3.5092549993, 0.0000000000, 0.0000000000, 1480, 1610, 40.0636825000, -88.2075696667, 0.0000000000, 0.0000000000, 0.0000000000, 0.0000000000, 0.0000000000, 0.0000000000, 0.0000000000, 0.0000000000, 0.0000000000, 0.0000000000, 0.0000000000, 0.0000000000, 0.0000000000, 0, -0.0400000215, 0.2200000286, 0.2735098302, 0.2301014215, 84.0000000000, 81.0000000000, 39.0000000000, 102.1138153076, 103.0687408447, 148.2050781250, 31.4580001831, 15.5479154587, 9.5399999619, 2, -1, 10, 1, 4
1535723226444, 235444, AUTO, 0, 40.1021172980, -88.2267727495, 0, -1631.3802742821, -4275.3114021352, 4575.9905140356, -1633.7359055323, -4273.7545442092, 0.2772805095, 0.0000000000, -1633.7745604972, -4275.3349876576, -0.0000000000, 3.5092549993, 0.0000000000, 0.0000000000, 1420, 1610, 40.0636825000, -88.2075696667, 0.0000000000, 0.0000000000, 0.0000000000, 0.0000000000, 0.0000000000, 0.0000000000, 0.0000000000, 0.0000000000, 0.0000000000, 0.0000000000, 0.0000000000, 0.0000000000, 0.0000000000, 0, -0.1600000262, 0.2200000286, 0.2770045996, 0.2775564194, 84.0000000000, 81.0000000000, 39.0000000000, 101.7318420410, 104.4056396484, 146.2952270508, 31.4580001831, 15.5477523804, 9.6999998093, 2, -1, 10, 1, 4
1535723226645, 235645, AUTO, 0, 40.1021172980, -88.2267727495, 0, -1631.2978260365, -4275.0693509398, 4575.7349740317, -1633.3246312614, -4273.1059071369, 0.2712106705, 0.0000000000, -1633.6921122516, -4275.0929364622, 0.0000000000, 3.5094838614, 0.0000000000, 0.0000000000, 1490, 1610, 40.0636883333, -88.2075745000, 0.0000000000, 0.0000000000, 0.0000000000, 0.0000000000, 0.0000000000, 0.0000000000, 0.0000000000, 0.0000000000, 0.0000000000, 0.0000000000, 0.0000000000, 0.0000000000, 0.0000000000, 0, -0.0199999809, 0.2200000286, 0.2812350690, 0.2611862719, 84.0000000000, 81.0000000000, 39.0000000000, 101.9228286743, 105.1059188843, 146.2315673828, 31.4580001831, 15.5477523804, 9.6999998093, 2, -1, 10, 1, 4
1535723226845, 235845, AUTO, 0, 40.1021172980, -88.2267727495, 0, -1631.2978260365, -4275.0693509398, 4575.7349740317, -1633.3246312614, -4273.1059071369, 0.2761768699, 0.0000000000, -1633.6921122516, -4275.0929364622, 0.0000000000, 3.5094838614, 0.0000000000, 0.0000000000, 1490, 1610, 40.0636883333, -88.2075745000, 0.0000000000, 0.0000000000, 0.0000000000, 0.0000000000, 0.0000000000, 0.0000000000, 0.0000000000, 0.0000000000, 0.0000000000, 0.0000000000, 0.0000000000, 0.0000000000, 0.0000000000, 0, -0.0199999809, 0.2200000286, 0.2661524713, 0.2862012684, 84.0000000000, 81.0000000000, 39.0000000000, 102.3048019409, 104.0236740112, 147.6321258545, 31.4580001831, 15.5477523804, 9.6999998093, 2, -1, 10, 1, 4
1535723227046, 236046, AUTO, 0, 40.1021172980, -88.2267727495, 0, -1631.2978260365, -4275.0693509398, 4575.7349740317, -1633.3246312614, -4273.1059071369, 0.2808672190, 0.0000000000, -1633.6921122516, -4275.0929364622, 0.0000000000, 3.5094838614, 0.0000000000, 0.0000000000, 1490, 1610, 40.0636883333, -88.2075745000, 0.0000000000, 0.0000000000, 0.0000000000, 0.0000000000, 0.0000000000, 0.0000000000, 0.0000000000, 0.0000000000, 0.0000000000, 0.0000000000, 0.0000000000, 0.0000000000, 0.0000000000, 0, -0.0199999809, 0.2200000286, 0.2729580402, 0.2887763679, 84.0000000000, 81.0000000000, 39.0000000000, 102.2411346436, 103.8326873779, 146.5498809814, 31.4580001831, 15.5477523804, 9.6999998093, 2, -1, 10, 1, 4
1535723227247, 236247, AUTO, 0, 40.1021172980, -88.2267727495, 0, -1631.2978260365, -4275.0693509398, 4575.7349740317, -1633.3246312614, -4273.1059071369, 0.2753491998, 0.0000000000, -1633.6921122516, -4275.0929364622, 0.0000000000, 3.5094838614, 0.0000000000, 0.0000000000, 1480, 1610, 40.0636883333, -88.2075745000, 0.0000000000, 0.0000000000, 0.0000000000, 0.0000000000, 0.0000000000, 0.0000000000, 0.0000000000, 0.0000000000, 0.0000000000, 0.0000000000, 0.0000000000, 0.0000000000, 0.0000000000, 0, -0.0400000215, 0.2200000286, 0.2654167414, 0.2852816284, 84.0000000000, 81.0000000000, 39.0000000000, 100.7132492065, 103.7053604126, 146.4862060547, 31.4580001831, 15.5477523804, 9.6999998093, 2, -1, 10, 1, 4
1535723227448, 236448, AUTO, 0, 40.1021172980, -88.2267727495, 0, -1631.2978260365, -4275.0693509398, 4575.7349740317, -1633.3246312614, -4273.1059071369, 0.2851896286, 0.0000000000, -1633.6921122516, -4275.0929364622, 0.0000000000, 3.5094838614, 0.0000000000, 0.0000000000, 1500, 1610, 40.0636883333, -88.2075745000, 0.0000000000, 0.0000000000, 0.0000000000, 0.0000000000, 0.0000000000, 0.0000000000, 0.0000000000, 0.0000000000, 0.0000000000, 0.0000000000, 0.0000000000, 0.0000000000, 0.0000000000, 0, 0.0000000000, 0.2200000286, 0.3022035360, 0.2681757510, 84.0000000000, 81.0000000000, 39.0000000000, 100.9042358398, 105.2969055176, 146.1679077148, 31.4580001831, 15.5427522659, 7.3699998856, 2, -1, 10, 1, 4
1535723227649, 236649, AUTO, 0, 40.1021172980, -88.2267727495, 0, -1631.2978260365, -4275.0693509398, 4575.7349740317, -1633.3246312614, -4273.1059071369, 0.2850976586, 0.0000000000, -1633.6921122516, -4275.0929364622, 0.0000000000, 3.5094838614, 0.0000000000, 0.0000000000, 1590, 1610, 40.0636883333, -88.2075745000, 0.0000000000, 0.0000000000, 0.0000000000, 0.0000000000, 0.0000000000, 0.0000000000, 0.0000000000, 0.0000000000, 0.0000000000, 0.0000000000, 0.0000000000, 0.0000000000, 0.0000000000, 0, 0.1799999475, 0.2200000286, 0.2580593824, 0.3121359646, 84.0000000000, 81.0000000000, 39.0000000000, 101.6681823730, 103.7053604126, 146.8045196533, 30.9199981689, 15.5427522659, 7.3699998856, 2, -1, 10, 1, 4
1535723227849, 236849, AUTO, 0, 40.1021172980, -88.2267727495, 0, -1631.2978260365, -4275.0693509398, 4575.7349740317, -1633.3246312614, -4273.1059071369, 0.2644051313, 0.0000000000, -1633.6921122516, -4275.0929364622, 0.0000000000, 3.5094838614, 0.0000000000, 0.0000000000, 1540, 1610, 40.0636883333, -88.2075745000, 0.0000000000, 0.0000000000, 0.0000000000, 0.0000000000, 0.0000000000, 0.0000000000, 0.0000000000, 0.0000000000, 0.0000000000, 0.0000000000, 0.0000000000, 0.0000000000, 0.0000000000, 0, 0.0800000429, 0.2200000286, 0.2516216934, 0.2771885395, 84.0000000000, 81.0000000000, 39.0000000000, 102.1138153076, 105.1059188843, 146.2952270508, 30.9199981689, 15.5427522659, 7.3699998856, 2, -1, 10, 1, 4
1535723228050, 237050, AUTO, 0, 40.1021172980, -88.2267727495, 0, -1631.2978260365, -4275.0693509398, 4575.7349740317, -1633.3246312614, -4273.1059071369, 0.2697392106, 0.0000000000, -1633.6921122516, -4275.0929364622, 0.0000000000, 3.5094838614, 0.0000000000, 0.0000000000, 1540, 1610, 40.0636883333, -88.2075745000, 0.0000000000, 0.0000000000, 0.0000000000, 0.0000000000, 0.0000000000, 0.0000000000, 0.0000000000, 0.0000000000, 0.0000000000, 0.0000000000, 0.0000000000, 0.0000000000, 0.0000000000, 0, 0.0800000429, 0.2200000286, 0.2345158458, 0.3049625754, 84.0000000000, 81.0000000000, 39.0000000000, 101.2862091064, 103.6417007446, 147.5684661865, 30.9199981689, 15.5427522659, 7.3699998856, 2, -1, 10, 1, 4
1535723228251, 237251, AUTO, 0, 40.1021172980, -88.2267727495, 0, -1631.2978260365, -4275.0693509398, 4575.7349740317, -1633.3246312614, -4273.1059071369, 0.2777403295, 0.0000000000, -1633.6921122516, -4275.0929364622, 0.0000000000, 3.5094838614, 0.0000000000, 0.0000000000, 1470, 1610, 40.0636883333, -88.2075745000, 0.0000000000, 0.0000000000, 0.0000000000, 0.0000000000, 0.0000000000, 0.0000000000, 0.0000000000, 0.0000000000, 0.0000000000, 0.0000000000, 0.0000000000, 0.0000000000, 0.0000000000, 0, -0.0600000024, 0.2200000286, 0.2301014215, 0.3253792226, 84.0000000000, 81.0000000000, 39.0000000000, 101.3498611450, 103.5780334473, 147.6321258545, 30.9199981689, 15.5427522659, 7.3699998856, 2, -1, 10, 1, 4
1535723228452, 237452, AUTO, 0, 40.1021172980, -88.2267727495, 0, -1631.2978260365, -4275.0693509398, 4575.7349740317, -1633.3246312614, -4273.1059071369, 0.2771885097, 0.0000000000, -1633.6921122516, -4275.0929364622, 0.0000000000, 3.5094838614, 0.0000000000, 0.0000000000, 1480, 1610, 40.0636883333, -88.2075745000, 0.0000000000, 0.0000000000, 0.0000000000, 0.0000000000, 0.0000000000, 0.0000000000, 0.0000000000, 0.0000000000, 0.0000000000, 0.0000000000, 0.0000000000, 0.0000000000, 0.0000000000, 0, -0.0400000215, 0.2200000286, 0.2159384936, 0.3384385407, 84.0000000000, 81.0000000000, 39.0000000000, 102.8140945435, 104.8512802124, 145.7222595215, 30.9199981689, 15.5372333527, 9.6200008392, 2, -1, 10, 1, 4
1535723228652, 237652, AUTO, 0, 40.1021172980, -88.2267727495, 0, -1631.1781557786, -4274.7960247872, 4575.4369440990, -1632.9275464776, -4272.5499325036, 0.2713026404, 0.0000000000, -1633.5724419937, -4274.8196103096, -0.0000000000, 3.5097644864, 0.0000000000, 0.0000000000, 1480, 1610, 40.0636933333, -88.2075791667, 0.0000000000, 0.0000000000, 0.0000000000, 0.0000000000, 0.0000000000, 0.0000000000, 0.0000000000, 0.0000000000, 0.0000000000, 0.0000000000, 0.0000000000, 0.0000000000, 0.0000000000, 0, -0.0400000215, 0.2200000286, 0.2043506503, 0.3382546008, 84.0000000000, 81.0000000000, 39.0000000000, 100.5859222412, 104.2783203125, 146.5498809814, 30.9199981689, 15.5372333527, 9.6200008392, 2, -1, 10, 1, 4
1535723228853, 237853, AUTO, 0, 40.1021172980, -88.2267727495, 0, -1631.1781557786, -4274.7960247872, 4575.4369440990, -1632.9275464776, -4272.5499325036, 0.2591629922, 0.0000000000, -1633.5724419937, -4274.8196103096, -0.0000000000, 3.5097644864, 0.0000000000, 0.0000000000, 1500, 1610, 40.0636933333, -88.2075791667, 0.0000000000, 0.0000000000, 0.0000000000, 0.0000000000, 0.0000000000, 0.0000000000, 0.0000000000, 0.0000000000, 0.0000000000, 0.0000000000, 0.0000000000, 0.0000000000, 0.0000000000, 0, 0.0000000000, 0.2200000286, 0.1830143332, 0.3353116512, 84.0000000000, 81.0000000000, 39.0000000000, 100.5222625732, 104.3419799805, 146.8681793213, 30.9199981689, 15.5372333527, 9.6200008392, 2, -1, 10, 1, 4
1535723229055, 238055, AUTO, 0, 40.1021172980, -88.2267727495, 0, -1631.1781557786, -4274.7960247872, 4575.4369440990, -1632.9275464776, -4272.5499325036, 0.2809591889, 0.0000000000, -1633.5724419937, -4274.8196103096, -0.0000000000, 3.5097644864, 0.0000000000, 0.0000000000, 1500, 1610, 40.0636933333, -88.2075791667, 0.0000000000, 0.0000000000, 0.0000000000, 0.0000000000, 0.0000000000, 0.0000000000, 0.0000000000, 0.0000000000, 0.0000000000, 0.0000000000, 0.0000000000, 0.0000000000, 0.0000000000, 0, 0.0000000000, 0.2200000286, 0.2812350690, 0.2806832790, 84.0000000000, 81.0000000000, 39.0000000000, 101.4135284424, 104.6602935791, 146.2315673828, 30.9199981689, 15.5372333527, 9.6200008392, 2, -1, 10, 1, 4
1535723229256, 238256, AUTO, 0, 40.1021172980, -88.2267727495, 0, -1631.1781557786, -4274.7960247872, 4575.4369440990, -1632.9275464776, -4272.5499325036, 0.2820627689, 0.0000000000, -1633.5724419937, -4274.8196103096, -0.0000000000, 3.5097644864, 0.0000000000, 0.0000000000, 1530, 1610, 40.0636933333, -88.2075791667, 0.0000000000, 0.0000000000, 0.0000000000, 0.0000000000, 0.0000000000, 0.0000000000, 0.0000000000, 0.0000000000, 0.0000000000, 0.0000000000, 0.0000000000, 0.0000000000, 0.0000000000, 0, 0.0599999428, 0.2200000286, 0.2946622372, 0.2694632709, 84.0000000000, 81.0000000000, 39.0000000000, 102.3684539795, 104.2146606445, 146.1042327881, 30.9199981689, 15.5372333527, 9.6200008392, 2, -1, 10, 1, 4
1535723229457, 238457, AUTO, 0, 40.1021172980, -88.2267727495, 0, -1631.1781557786, -4274.7960247872, 4575.4369440990, -1632.9275464776, -4272.5499325036, 0.2845458984, 0.0000000000, -1633.5724419937, -4274.8196103096, -0.0000000000, 3.5097644864, 0.0000000000, 0.0000000000, 1500, 1610, 40.0636933333, -88.2075791667, 0.0000000000, 0.0000000000, 0.0000000000, 0.0000000000, 0.0000000000, 0.0000000000, 0.0000000000, 0.0000000000, 0.0000000000, 0.0000000000, 0.0000000000, 0.0000000000, 0.0000000000, 0, 0.0000000000, 0.2200000286, 0.3102966547, 0.2587951124, 84.0000000000, 81.0000000000, 39.0000000000, 101.2862091064, 104.0873336792, 146.4225463867, 30.9199981689, 15.5362195969, 6.6400003433, 2, -1, 10, 1, 4
1535723229658, 238658, AUTO, 0, 40.1021172980, -88.2267727495, 0, -1631.1781557786, -4274.7960247872, 4575.4369440990, -1632.9275464776, -4272.5499325036, 0.2670721412, 0.0000000000, -1633.5724419937, -4274.8196103096, -0.0000000000, 3.5097644864, 0.0000000000, 0.0000000000, 1520, 1610, 40.0636933333, -88.2075791667, 0.0000000000, 0.0000000000, 0.0000000000, 0.0000000000, 0.0000000000, 0.0000000000, 0.0000000000, 0.0000000000, 0.0000000000, 0.0000000000, 0.0000000000, 0.0000000000, 0.0000000000, 0, 0.0399999619, 0.2200000286, 0.2992605865, 0.2348836958, 84.0000000000, 81.0000000000, 39.0000000000, 101.8591613770, 104.7239532471, 145.8495941162, 31.4580001831, 15.5362195969, 6.6400003433, 2, -1, 10, 1, 4
1535723229858, 238858, AUTO, 0, 40.1021172980, -88.2267727495, 0, -1631.1781557786, -4274.7960247872, 4575.4369440990, -1632.9275464776, -4272.5499325036, 0.2828904688, 0.0000000000, -1633.5724419937, -4274.8196103096, -0.0000000000, 3.5097644864, 0.0000000000, 0.0000000000, 1530, 1610, 40.0636933333, -88.2075791667, 0.0000000000, 0.0000000000, 0.0000000000, 0.0000000000, 0.0000000000, 0.0000000000, 0.0000000000, 0.0000000000, 0.0000000000, 0.0000000000, 0.0000000000, 0.0000000000, 0.0000000000, 0, 0.0599999428, 0.2200000286, 0.3104805648, 0.2553003728, 84.0000000000, 81.0000000000, 39.0000000000, 102.4957885742, 104.4056396484, 146.9318542480, 31.4580001831, 15.5362195969, 6.6400003433, 2, -1, 10, 1, 4
1535723230059, 239059, AUTO, 0, 40.1021172980, -88.2267727495, 0, -1631.1781557786, -4274.7960247872, 4575.4369440990, -1632.9275464776, -4272.5499325036, 0.2665203512, 0.0000000000, -1633.5724419937, -4274.8196103096, -0.0000000000, 3.5097644864, 0.0000000000, 0.0000000000, 1520, 1610, 40.0636933333, -88.2075791667, 0.0000000000, 0.0000000000, 0.0000000000, 0.0000000000, 0.0000000000, 0.0000000000, 0.0000000000, 0.0000000000, 0.0000000000, 0.0000000000, 0.0000000000, 0.0000000000, 0.0000000000, 0, 0.0399999619, 0.2200000286, 0.2781081796, 0.2549325228, 84.0000000000, 81.0000000000, 39.0000000000, 101.4135284424, 104.9149398804, 146.2952270508, 31.4580001831, 15.5362195969, 6.6400003433, 2, -1, 10, 1, 4
1535723230260, 239260, AUTO, 0, 40.1021172980, -88.2267727495, 0, -1631.1781557786, -4274.7960247872, 4575.4369440990, -1632.9275464776, -4272.5499325036, 0.2736937404, 0.0000000000, -1633.5724419937, -4274.8196103096, -0.0000000000, 3.5097644864, 0.0000000000, 0.0000000000, 1410, 1610, 40.0636933333, -88.2075791667, 0.0000000000, 0.0000000000, 0.0000000000, 0.0000000000, 0.0000000000, 0.0000000000, 0.0000000000, 0.0000000000, 0.0000000000, 0.0000000000, 0.0000000000, 0.0000000000, 0.0000000000, 0, -0.1800000072, 0.2200000286, 0.2696472108, 0.2777402997, 84.0000000000, 81.0000000000, 39.0000000000, 102.4957885742, 103.0050811768, 147.6957855225, 31.4580001831, 15.5362195969, 6.6400003433, 2, -1, 10, 1, 4
1535723230461, 239461, AUTO, 0, 40.1021172980, -88.2267727495, 0, -1631.1781557786, -4274.7960247872, 4575.4369440990, -1632.9275464776, -4272.5499325036, 0.2822467089, 0.0000000000, -1633.5724419937, -4274.8196103096, -0.0000000000, 3.5097644864, 0.0000000000, 0.0000000000, 1590, 1610, 40.0636933333, -88.2075791667, 0.0000000000, 0.0000000000, 0.0000000000, 0.0000000000, 0.0000000000, 0.0000000000, 0.0000000000, 0.0000000000, 0.0000000000, 0.0000000000, 0.0000000000, 0.0000000000, 0.0000000000, 0, 0.1799999475, 0.2200000286, 0.2578754425, 0.3066179752, 84.0000000000, 81.0000000000, 39.0000000000, 102.3048019409, 104.8512802124, 145.9769134521, 31.4580001831, 15.5462875366, 12.3500003815, 2, -1, 10, 1, 4
1535723230661, 239661, AUTO, 0, 40.1021172980, -88.2267727495, 0, -1631.0717799213, -4274.5771094087, 4575.1944893672, -1632.9701008403, -4272.6981924054, 0.2897880077, 0.0000000000, -1633.4660661364, -4274.6006949311, -0.0000000000, 3.5101225662, 0.0000000000, 0.0000000000, 1500, 1610, 40.0636920000, -88.2075786667, 0.0000000000, 0.0000000000, 0.0000000000, 0.0000000000, 0.0000000000, 0.0000000000, 0.0000000000, 0.0000000000, 0.0000000000, 0.0000000000, 0.0000000000, 0.0000000000, 0.0000000000, 0, 0.0000000000, 0.2200000286, 0.2286299467, 0.3509460688, 84.0000000000, 81.0000000000, 39.0000000000, 101.9228286743, 103.7690200806, 146.9318542480, 31.4580001831, 15.5462875366, 12.3500003815, 2, -1, 10, 1, 4
1535723230862, 239862, AUTO, 0, 40.1021172980, -88.2267727495, 0, -1631.0717799213, -4274.5771094087, 4575.1944893672, -1632.9701008403, -4272.6981924054, 0.2759929597, 0.0000000000, -1633.4660661364, -4274.6006949311, -0.0000000000, 3.5101225662, 0.0000000000, 0.0000000000, 1490, 1610, 40.0636920000, -88.2075786667, 0.0000000000, 0.0000000000, 0.0000000000, 0.0000000000, 0.0000000000, 0.0000000000, 0.0000000000, 0.0000000000, 0.0000000000, 0.0000000000, 0.0000000000, 0.0000000000, 0.0000000000, 0, -0.0199999809, 0.2200000286, 0.2643131614, 0.2876727581, 84.0000000000, 81.0000000000, 39.0000000000, 101.6045150757, 105.9971923828, 145.6585998535, 31.4580001831, 15.5462875366, 12.3500003815, 2, -1, 10, 1, 4
1535723231063, 240063, AUTO, 0, 40.1021172980, -88.2267727495, 0, -1631.0717799213, -4274.5771094087, 4575.1944893672, -1632.9701008403, -4272.6981924054, 0.2870289683, 0.0000000000, -1633.4660661364, -4274.6006949311, -0.0000000000, 3.5101225662, 0.0000000000, 0.0000000000, 1510, 1610, 40.0636920000, -88.2075786667, 0.0000000000, 0.0000000000, 0.0000000000, 0.0000000000, 0.0000000000, 0.0000000000, 0.0000000000, 0.0000000000, 0.0000000000, 0.0000000000, 0.0000000000, 0.0000000000, 0.0000000000, 0, 0.0199999809, 0.2200000286, 0.2957658470, 0.2782921195, 84.0000000000, 81.0000000000, 39.0000000000, 101.4771957397, 103.1960678101, 147.7594451904, 31.4580001831, 15.5462875366, 12.3500003815, 2, -1, 10, 1, 4
1535723231264, 240264, AUTO, 0, 40.1021172980, -88.2267727495, 0, -1631.0717799213, -4274.5771094087, 4575.1944893672, -1632.9701008403, -4272.6981924054, 0.2847298086, 0.0000000000, -1633.4660661364, -4274.6006949311, -0.0000000000, 3.5101225662, 0.0000000000, 0.0000000000, 1490, 1610, 40.0636920000, -88.2075786667, 0.0000000000, 0.0000000000, 0.0000000000, 0.0000000000, 0.0000000000, 0.0000000000, 0.0000000000, 0.0000000000, 0.0000000000, 0.0000000000, 0.0000000000, 0.0000000000, 0.0000000000, 0, -0.0199999809, 0.2200000286, 0.3159985840, 0.2534610331, 84.0000000000, 81.0000000000, 39.0000000000, 100.7132492065, 103.2597274780, 148.0140991211, 31.4580001831, 15.5462875366, 12.3500003815, 2, -1, 10, 1, 4
1535723231465, 240465, AUTO, 0, 40.1021172980, -88.2267727495, 0, -1631.0717799213, -4274.5771094087, 4575.1944893672, -1632.9701008403, -4272.6981924054, 0.2847298086, 0.0000000000, -1633.4660661364, -4274.6006949311, -0.0000000000, 3.5101225662, 0.0000000000, 0.0000000000, 1490, 1610, 40.0636920000, -88.2075786667, 0.0000000000, 0.0000000000, 0.0000000000, 0.0000000000, 0.0000000000, 0.0000000000, 0.0000000000, 0.0000000000, 0.0000000000, 0.0000000000, 0.0000000000, 0.0000000000, 0.0000000000, 0, -0.0199999809, 0.2200000286, 0.3468995094, 0.2225601226, 84.0000000000, 81.0000000000, 39.0000000000, 101.7318420410, 104.4693069458, 146.1679077148, 31.4580001831, 15.5418949127, 10.2700004578, 2, -1, 10, 1, 4
1535723231666, 240666, AUTO, 0, 40.1021172980, -88.2267727495, 0, -1631.0717799213, -4274.5771094087, 4575.1944893672, -1632.9701008403, -4272.6981924054, 0.2816949189, 0.0000000000, -1633.4660661364, -4274.6006949311, -0.0000000000, 3.5101225662, 0.0000000000, 0.0000000000, 1530, 1610, 40.0636920000, -88.2075786667, 0.0000000000, 0.0000000000, 0.0000000000, 0.0000000000, 0.0000000000, 0.0000000000, 0.0000000000, 0.0000000000, 0.0000000000, 0.0000000000, 0.0000000000, 0.0000000000, 0.0000000000, 0, 0.0599999428, 0.2200000286, 0.3194933534, 0.2438964695, 84.0000000000, 81.0000000000, 39.0000000000, 102.1138153076, 104.0236740112, 146.8045196533, 31.4580001831, 15.5418949127, 10.2700004578, 2, -1, 10, 1, 4
1535723231867, 240867, AUTO, 0, 40.1021172980, -88.2267727495, 0, -1631.0717799213, -4274.5771094087, 4575.1944893672, -1632.9701008403, -4272.6981924054, 0.2874888182, 0.0000000000, -1633.4660661364, -4274.6006949311, -0.0000000000, 3.5101225662, 0.0000000000, 0.0000000000, 1510, 1610, 40.0636920000, -88.2075786667, 0.0000000000, 0.0000000000, 0.0000000000, 0.0000000000, 0.0000000000, 0.0000000000, 0.0000000000, 0.0000000000, 0.0000000000, 0.0000000000, 0.0000000000, 0.0000000000, 0.0000000000, 0, 0.0199999809, 0.2200000286, 0.2832583487, 0.2917193174, 84.0000000000, 81.0000000000, 39.0000000000, 101.6681823730, 104.2146606445, 146.8681793213, 31.4580001831, 15.5418949127, 10.2700004578, 2, -1, 10, 1, 4
1535723232067, 241067, AUTO, 0, 40.1021172980, -88.2267727495, 0, -1631.0717799213, -4274.5771094087, 4575.1944893672, -1632.9701008403, -4272.6981924054, 0.2793957591, 0.0000000000, -1633.4660661364, -4274.6006949311, -0.0000000000, 3.5101225662, 0.0000000000, 0.0000000000, 1500, 1610, 40.0636920000, -88.2075786667, 0.0000000000, 0.0000000000, 0.0000000000, 0.0000000000, 0.0000000000, 0.0000000000, 0.0000000000, 0.0000000000, 0.0000000000, 0.0000000000, 0.0000000000, 0.0000000000, 0.0000000000, 0, 0.0000000000, 0.2200000286, 0.2771885395, 0.2816029489, 84.0000000000, 81.0000000000, 39.0000000000, 100.7132492065, 104.6602935791, 146.4862060547, 31.4580001831, 15.5418949127, 10.2700004578, 2, -1, 10, 1, 4
1535723232268, 241268, AUTO, 0, 40.1021172980, -88.2267727495, 0, -1631.0717799213, -4274.5771094087, 4575.1944893672, -1632.9701008403, -4272.6981924054, 0.2759929299, 0.0000000000, -1633.4660661364, -4274.6006949311, -0.0000000000, 3.5101225662, 0.0000000000, 0.0000000000, 1510, 1610, 40.0636920000, -88.2075786667, 0.0000000000, 0.0000000000, 0.0000000000, 0.0000000000, 0.0000000000, 0.0000000000, 0.0000000000, 0.0000000000, 0.0000000000, 0.0000000000, 0.0000000000, 0.0000000000, 0.0000000000, 0, 0.0199999809, 0.2200000286, 0.2738777101, 0.2781081796, 84.0000000000, 81.0000000000, 39.0000000000, 101.6045150757, 104.9785995483, 146.8045196533, 31.4580001831, 15.5418949127, 10.2700004578, 2, -1, 10, 1, 4
1535723232469, 241469, AUTO, 0, 40.1021172980, -88.2267727495, 0, -1631.0717799213, -4274.5771094087, 4575.1944893672, -1632.9701008403, -4272.6981924054, 0.2795796692, 0.0000000000, -1633.4660661364, -4274.6006949311, -0.0000000000, 3.5101225662, 0.0000000000, 0.0000000000, 1480, 1610, 40.0636920000, -88.2075786667, 0.0000000000, 0.0000000000, 0.0000000000, 0.0000000000, 0.0000000000, 0.0000000000, 0.0000000000, 0.0000000000, 0.0000000000, 0.0000000000, 0.0000000000, 0.0000000000, 0.0000000000, 0, -0.0400000215, 0.2200000286, 0.2946622372, 0.2644971013, 84.0000000000, 81.0000000000, 39.0000000000, 102.6867752075, 103.4507141113, 147.7594451904, 31.4580001831, 15.5419292450, 3.2899999619, 2, -1, 10, 1, 4
1535723232670, 241670, AUTO, 0, 40.1021172980, -88.2267727495, 0, -1631.0717799213, -4274.5771094087, 4575.1944893672, -1632.9701008403, -4272.6981924054, 0.2833502889, 0.0000000000, -1633.4660661364, -4274.6006949311, -0.0000000000, 3.5101225662, 0.0000000000, 0.0000000000, 1480, 1610, 40.0636920000, -88.2075786667, 0.0000000000, 0.0000000000, 0.0000000000, 0.0000000000, 0.0000000000, 0.0000000000, 0.0000000000, 0.0000000000, 0.0000000000, 0.0000000000, 0.0000000000, 0.0000000000, 0.0000000000, 0, -0.0400000215, 0.2200000286, 0.2587951124, 0.3079054952, 84.0000000000, 81.0000000000, 39.0000000000, 102.0501480103, 103.8326873779, 146.9955139160, 30.9199981689, 15.5419292450, 3.2899999619, 2, -1, 10, 1, 4
1535723232871, 241871, AUTO, 0, 40.1021172980, -88.2267727495, 0, -1631.0717799213, -4274.5771094087, 4575.1944893672, -1632.9701008403, -4272.6981924054, 0.2768206596, 0.0000000000, -1633.4660661364, -4274.6006949311, -0.0000000000, 3.5101225662, 0.0000000000, 0.0000000000, 1520, 1610, 40.0636920000, -88.2075786667, 0.0000000000, 0.0000000000, 0.0000000000, 0.0000000000, 0.0000000000, 0.0000000000, 0.0000000000, 0.0000000000, 0.0000000000, 0.0000000000, 0.0000000000, 0.0000000000, 0.0000000000, 0, 0.0399999619, 0.2200000286, 0.2913514376, 0.2622898817, 84.0000000000, 81.0000000000, 39.0000000000, 101.6681823730, 105.8698654175, 144.6399993896, 30.9199981689, 15.5419292450, 3.2899999619, 2, -1, 10, 1, 4
1535723233071, 242071, AUTO, 0, 40.1021172980, -88.2267727495, 0, -1631.0717799213, -4274.5771094087, 4575.1944893672, -1632.9701008403, -4272.6981924054, 0.2781081796, 0.0000000000, -1633.4660661364, -4274.6006949311, -0.0000000000, 3.5101225662, 0.0000000000, 0.0000000000, 1530, 1610, 40.0636920000, -88.2075786667, 0.0000000000, 0.0000000000, 0.0000000000, 0.0000000000, 0.0000000000, 0.0000000000, 0.0000000000, 0.0000000000, 0.0000000000, 0.0000000000, 0.0000000000, 0.0000000000, 0.0000000000, 0, 0.0599999428, 0.2200000286, 0.2953979969, 0.2608183920, 84.0000000000, 81.0000000000, 39.0000000000, 100.9042358398, 102.8777542114, 147.5048065186, 30.9199981689, 15.5419292450, 3.2899999619, 2, -1, 10, 1, 4
1535723233272, 242272, AUTO, 0, 40.1021172980, -88.2267727495, 0, -1631.0717799213, -4274.5771094087, 4575.1944893672, -1632.9701008403, -4272.6981924054, 0.2714865804, 0.0000000000, -1633.4660661364, -4274.6006949311, -0.0000000000, 3.5101225662, 0.0000000000, 0.0000000000, 1500, 1610, 40.0636920000, -88.2075786667, 0.0000000000, 0.0000000000, 0.0000000000, 0.0000000000, 0.0000000000, 0.0000000000, 0.0000000000, 0.0000000000, 0.0000000000, 0.0000000000, 0.0000000000, 0.0000000000, 0.0000000000, 0, 0.0000000000, 0.2200000286, 0.2873049080, 0.2556682527, 84.0000000000, 81.0000000000, 39.0000000000, 101.1588821411, 104.4693069458, 146.9955139160, 30.9199981689, 15.5419292450, 3.2899999619, 2, -1, 10, 1, 4
1535723233473, 242473, AUTO, 0, 40.1021172980, -88.2267727495, 0, -1631.0717799213, -4274.5771094087, 4575.1944893672, -1632.9701008403, -4272.6981924054, 0.2797635794, 0.0000000000, -1633.4660661364, -4274.6006949311, -0.0000000000, 3.5101225662, 0.0000000000, 0.0000000000, 1510, 1610, 40.0636920000, -88.2075786667, 0.0000000000, 0.0000000000, 0.0000000000, 0.0000000000, 0.0000000000, 0.0000000000, 0.0000000000, 0.0000000000, 0.0000000000, 0.0000000000, 0.0000000000, 0.0000000000, 0.0000000000, 0, 0.0199999809, 0.2200000286, 0.3060661554, 0.2534610331, 84.0000000000, 81.0000000000, 39.0000000000, 100.7132492065, 103.9600067139, 147.0591583252, 30.9199981689, 15.5293703079, 10.7799997330, 2, -1, 10, 1, 4
1535723233674, 242674, AUTO, 0, 40.1021172980, -88.2267727495, 0, -1631.0717799213, -4274.5771094087, 4575.1944893672, -1632.9701008403, -4272.6981924054, 0.2832583487, 0.0000000000, -1633.4660661364, -4274.6006949311, -0.0000000000, 3.5101225662, 0.0000000000, 0.0000000000, 1500, 1610, 40.0636920000, -88.2075786667, 0.0000000000, 0.0000000000, 0.0000000000, 0.0000000000, 0.0000000000, 0.0000000000, 0.0000000000, 0.0000000000, 0.0000000000, 0.0000000000, 0.0000000000, 0.0000000000, 0.0000000000, 0, 0.0000000000, 0.2200000286, 0.2746134400, 0.2919032574, 84.0000000000, 81.0000000000, 39.0000000000, 102.6231079102, 105.0422668457, 146.4862060547, 30.9199981689, 15.5293703079, 10.7799997330, 2, -1, 10, 1, 4
1535723233874, 242874, AUTO, 0, 40.1021172980, -88.2267727495, 0, -1631.0717799213, -4274.5771094087, 4575.1944893672, -1632.9701008403, -4272.6981924054, 0.2904317677, 0.0000000000, -1633.4660661364, -4274.6006949311, -0.0000000000, 3.5101225662, 0.0000000000, 0.0000000000, 1500, 1610, 40.0636920000, -88.2075786667, 0.0000000000, 0.0000000000, 0.0000000000, 0.0000000000, 0.0000000000, 0.0000000000, 0.0000000000, 0.0000000000, 0.0000000000, 0.0000000000, 0.0000000000, 0.0000000000, 0.0000000000, 0, 0.0000000000, 0.2200000286, 0.2974212468, 0.2834422886, 84.0000000000, 81.0000000000, 39.0000000000, 101.2225418091, 104.5329666138, 146.3588867188, 30.9199981689, 15.5293703079, 10.7799997330, 2, -1, 10, 1, 4
1535723234076, 243076, AUTO, 0, 40.1021172980, -88.2267727495, 0, -1631.0717799213, -4274.5771094087, 4575.1944893672, -1632.9701008403, -4272.6981924054, 0.2846378386, 0.0000000000, -1633.4660661364, -4274.6006949311, -0.0000000000, 3.5101225662, 0.0000000000, 0.0000000000, 1450, 1610, 40.0636920000, -88.2075786667, 0.0000000000, 0.0000000000, 0.0000000000, 0.0000000000, 0.0000000000, 0.0000000000, 0.0000000000, 0.0000000000, 0.0000000000, 0.0000000000, 0.0000000000, 0.0000000000, 0.0000000000, 0, -0.1000000238, 0.2200000286, 0.2297335416, 0.3395421505, 84.0000000000, 81.0000000000, 39.0000000000, 101.3498611450, 104.7239532471, 146.1042327881, 30.9199981689, 15.5293703079, 10.7799997330, 2, -1, 10, 1, 4
1535723234277, 243277, AUTO, 0, 40.1021172980, -88.2267727495, 0, -1631.0717799213, -4274.5771094087, 4575.1944893672, -1632.9701008403, -4272.6981924054, 0.2760849297, 0.0000000000, -1633.4660661364, -4274.6006949311, -0.0000000000, 3.5101225662, 0.0000000000, 0.0000000000, 1460, 1610, 40.0636920000, -88.2075786667, 0.0000000000, 0.0000000000, 0.0000000000, 0.0000000000, 0.0000000000, 0.0000000000, 0.0000000000, 0.0000000000, 0.0000000000, 0.0000000000, 0.0000000000, 0.0000000000, 0.0000000000, 0, -0.0799999833, 0.2200000286, 0.2034309953, 0.3487388492, 84.0000000000, 81.0000000000, 39.0000000000, 99.8219757080, 105.4878921509, 145.2129669189, 30.9199981689, 15.5293703079, 10.7799997330, 2, -1, 10, 1, 4
1535723234478, 243478, AUTO, 0, 40.1021172980, -88.2267727495, 0, -1631.0717799213, -4274.5771094087, 4575.1944893672, -1632.9701008403, -4272.6981924054, 0.2598067522, 0.0000000000, -1633.4660661364, -4274.6006949311, -0.0000000000, 3.5101225662, 0.0000000000, 0.0000000000, 1570, 1610, 40.0636920000, -88.2075786667, 0.0000000000, 0.0000000000, 0.0000000000, 0.0000000000, 0.0000000000, 0.0000000000, 0.0000000000, 0.0000000000, 0.0000000000, 0.0000000000, 0.0000000000, 0.0000000000, 0.0000000000, 0, 0.1399999857, 0.2200000286, 0.2692793608, 0.2503341436, 84.0000000000, 81.0000000000, 39.0000000000, 101.3498611450, 104.3419799805, 146.4862060547, 30.9199981689, 15.5281677246, 13.1100006104, 2, -1, 10, 1, 4
1535723234678, 243678, AUTO, 0, 40.1021172980, -88.2267727495, 0, -1631.0717799213, -4274.5771094087, 4575.1944893672, -1632.9701008403, -4272.6981924054, 0.2689114809, 0.0000000000, -1633.4660661364, -4274.6006949311, -0.0000000000, 3.5101225662, 0.0000000000, 0.0000000000, 1490, 1610, 40.0636920000, -88.2075786667, 0.0000000000, 0.0000000000, 0.0000000000, 0.0000000000, 0.0000000000, 0.0000000000, 0.0000000000, 0.0000000000, 0.0000000000, 0.0000000000, 0.0000000000, 0.0000000000, 0.0000000000, 0, -0.0199999809, 0.2200000286, 0.2676239610, 0.2701990306, 84.0000000000, 81.0000000000, 39.0000000000, 101.9864883423, 104.9785995483, 146.1042327881, 31.4580001831, 15.5281677246, 13.1100006104, 2, -1, 10, 1, 4
1535723234879, 243879, AUTO, 0, 40.1021172980, -88.2267727495, 0, -1631.0717799213, -4274.5771094087, 4575.1944893672, -1632.9701008403, -4272.6981924054, 0.2803153992, 0.0000000000, -1633.4660661364, -4274.6006949311, -0.0000000000, 3.5101225662, 0.0000000000, 0.0000000000, 1460, 1610, 40.0636920000, -88.2075786667, 0.0000000000, 0.0000000000, 0.0000000000, 0.0000000000, 0.0000000000, 0.0000000000, 0.0000000000, 0.0000000000, 0.0000000000, 0.0000000000, 0.0000000000, 0.0000000000, 0.0000000000, 0, -0.0799999833, 0.2200000286, 0.2898799777, 0.2707508504, 84.0000000000, 81.0000000000, 39.0000000000, 100.7132492065, 103.1324005127, 147.6957855225, 31.4580001831, 15.5281677246, 13.1100006104, 2, -1, 10, 1, 4
1535723235080, 244080, RC, 0, 40.1021172980, -88.2267727495, 0, -1631.0717799213, -4274.5771094087, 4575.1944893672, -1632.9701008403, -4272.6981924054, 0.2358033657, 0.0000000000, -1633.4660661364, -4274.6006949311, -0.0000000000, 3.5101225662, 0.0000000000, 0.0000000000, 1500, 1500, 40.0636920000, -88.2075786667, 0.0000000000, 0.0000000000, 0.0000000000, 0.0000000000, 0.0000000000, 0.0000000000, 0.0000000000, 0.0000000000, 0.0000000000, 0.0000000000, 0.0000000000, 0.0000000000, 0.0000000000, 0, 0.0000000000, 0.0000000000, 0.1896359324, 0.2819707990, 84.0000000000, 81.0000000000, 39.0000000000, 101.5408554077, 105.2969055176, 146.1679077148, 31.4580001831, 15.5281677246, 13.1100006104, 2, -1, 10, 1, 4
1535723235281, 244281, RC, 0, 40.1021172980, -88.2267727495, 0, -1631.0717799213, -4274.5771094087, 4575.1944893672, -1632.9701008403, -4272.6981924054, 0.0940822363, 0.0000000000, -1633.4660661364, -4274.6006949311, -0.0000000000, 3.5101225662, 0.0000000000, 0.0000000000, 1500, 1500, 40.0636920000, -88.2075786667, 0.0000000000, 0.0000000000, 0.0000000000, 0.0000000000, 0.0000000000, 0.0000000000, 0.0000000000, 0.0000000000, 0.0000000000, 0.0000000000, 0.0000000000, 0.0000000000, 0.0000000000, 0, 0.0000000000, 0.0000000000, 0.0805630833, 0.1076013818, 84.0000000000, 81.0000000000, 39.0000000000, 101.9228286743, 104.5329666138, 146.8045196533, 31.4580001831, 15.5281677246, 13.1100006104, 2, -1, 10, 1, 4
1535723235481, 244481, RC, 0, 40.1021172980, -88.2267727495, 0, -1631.0717799213, -4274.5771094087, 4575.1944893672, -1632.9701008403, -4272.6981924054, 0.0321884491, 0.0000000000, -1633.4660661364, -4274.6006949311, -0.0000000000, 3.5101225662, 0.0000000000, 0.0000000000, 1500, 1500, 40.0636920000, -88.2075786667, 0.0000000000, 0.0000000000, 0.0000000000, 0.0000000000, 0.0000000000, 0.0000000000, 0.0000000000, 0.0000000000, 0.0000000000, 0.0000000000, 0.0000000000, 0.0000000000, 0.0000000000, 0, 0.0000000000, 0.0000000000, 0.0277740341, 0.0366028622, 84.0000000000, 81.0000000000, 39.0000000000, 101.7955017090, 104.5329666138, 146.7408599854, 31.4580001831, 15.5410251617, 0.9700000286, 2, -1, 10, 1, 4
1535723235682, 244682, RC, 0, 40.1021172980, -88.2267727495, 0, -1630.9928769158, -4274.3767310991, 4574.9791479209, -1633.0410021255, -4272.7352573816, 0.0137950499, 0.0000000000, -1633.3871631309, -4274.4003166215, -0.0000000000, 3.5109452421, 0.0000000000, 0.0000000000, 1500, 1500, 40.0636916667, -88.2075778333, 0.0000000000, 0.0000000000, 0.0000000000, 0.0000000000, 0.0000000000, 0.0000000000, 0.0000000000, 0.0000000000, 0.0000000000, 0.0000000000, 0.0000000000, 0.0000000000, 0.0000000000, 0, 0.0000000000, 0.0000000000, 0.0119557092, 0.0156343896, 84.0000000000, 81.0000000000, 39.0000000000, 101.8591613770, 104.4056396484, 146.8045196533, 30.9199981689, 15.5410251617, 0.9700000286, 2, -1, 10, 1, 4
1535723235883, 244883, RC, 0, 40.1021172980, -88.2267727495, 0, -1630.9928769158, -4274.3767310991, 4574.9791479209, -1633.0410021255, -4272.7352573816, 0.0047822837, 0.0000000000, -1633.3871631309, -4274.4003166215, -0.0000000000, 3.5109452421, 0.0000000000, 0.0000000000, 1500, 1500, 40.0636916667, -88.2075778333, 0.0000000000, 0.0000000000, 0.0000000000, 0.0000000000, 0.0000000000, 0.0000000000, 0.0000000000, 0.0000000000, 0.0000000000, 0.0000000000, 0.0000000000, 0.0000000000, 0.0000000000, 0, 0.0000000000, 0.0000000000, 0.0040465477, 0.0055180197, 84.0000000000, 81.0000000000, 39.0000000000, 101.8591613770, 104.2783203125, 146.8045196533, 30.9199981689, 15.5410251617, 0.9700000286, 2, -1, 10, 1, 4
