(0)linux time (ms),    (1)uptime  (ms),      (2)drive mode,(3)mpc step counter,(4)mpc origin latitude  (deg),(5)mpc origin longitude  (deg),(6)closest trajectory point index to robot,(7)mpc error x (W;E)  (m),(8)mpc error y (W;E)  (m),(9)abs mpc error (m),(10)input [x] for mhe (m),(11)input [y] for mhe (m),(12)input [speed] for mhe (m/s),(13)input [vyaw] for mhe (rad/s),(14)mhe output x  (m),(15)mhe output y  (m),(16)mhe output speed  (m/s),(17)mhe output yaw  (rad),(18)mpc reference heading (rad),(19)mpc turn rate command (rad/s),(20)turn rate command as PWM,(21)throttle command as PWM,(22)primary gps latitude (deg),(23)primary gps longitude (deg),(24)secondary gps latitude  (deg),(25)secondary gps longitude (deg),(26)accelerometer x (m/s^2),(27)accelerometer y (m/s^2),(28)accelerometer z (m/s^2),(29)gyro yaw rate (rad/s),(30)gyro pitch rate   (rad/s),(31)gyro roll rate (rad/s),      (32)yaw (rad),  (33)pitch   (rad),     (34)roll (rad),(35)sonar1 measurement (m),(36)ultrasonic sensor measurement (m),(37)primary gps time (s),(38)normalized turn rate command,(39)normalized throttle command,(40)speed calculation from encoder left (m/s),(41)speed calculation from encoder right (m/s),(42)front gimbal target angle (degrees from straight down),(43)left gimbal target angle  (degrees from straight down),(44)right gimbal target angle  (degrees from straight down),(45)front gimbal measured angle  (degrees from straight down),(46)left gimbal measured angle    (degrees from straight down),(47)right gimbal measured angle  (degrees from straight down),(48)internal temperature (C),(49)battery voltage (V),(50)primary gps type,(51)secondary gps type,    (52)MPC R value, (53)MPC Q[0] value,

1536699985727, 9727, AUTO, 0, 40.1234567000, -81.1234567000, 0, -0.3987219063, 2.0822455553, 2.1200768172, -0.3996224422, -0.3002263011, 0.0001839340, 0.0049390001, -0.3987219063, -0.3005028730, 0.0627280906, -0.3149872234, 0.0000000000, 0.0000000000, 1540, 1570, 40.1234540000, -81.1234520000, 0.0000000000, 0.0000000000, 0.0044189999, 0.0223239996, 9.8043251038, -0.0008170000, -0.0048199999, -0.0009070000, 0.0000000000, 0.0000000000, 0.0000000000, 0.0000000000, 0.0000000000, 0, 0.0800000429, 0.1399999857, 0.0003678680, 0.0000000000, 90.0000000000, 90.0000000000, 90.0000000000, 0.0000000000, 0.0000000000, 0.0000000000, 25.0019989014, 0.0000000000, 0.0000000000, 5, 2, 10, 1, 0
1536699985928, 9928, AUTO, 0, 40.1234567000, -81.1234567000, 0, -0.4097709574, 2.0823722896, 2.1223069029, -0.3996224422, -0.3002263011, 0.0546283945, -0.0001440000, -0.4097709574, -0.3003761387, 0.0334018203, -0.3145005145, 0.0000000000, 0.0000000000, 1530, 1570, 40.1234540000, -81.1234520000, 0.0000000000, 0.0000000000, 3.5874550343, 0.6870920062, 8.6249628067, -0.0041049998, 0.0604420006, -0.0146460002, 0.0000000000, 0.0000000000, 0.0000000000, 0.0000000000, 0.0000000000, 0, 0.0599999428, 0.1399999857, 0.0007357360, 0.1085210517, 90.0000000000, 90.0000000000, 90.0000000000, 0.0000000000, 0.0000000000, 0.0000000000, 24.4640007019, 0.0000000000, 0.0000000000, 5, 2, 10, 1, 0
1536699986128, 10128, AUTO, 0, 40.1234567000, -81.1234567000, 0, -0.4154076961, 2.0824723750, 2.1235005879, -0.4846484928, -0.3002263011, 0.1604824066, 0.0071729999, -0.4154076961, -0.3002760533, 0.0109315520, -0.3145582044, 0.0000000000, 0.0000000000, 1540, 1570, 40.1234540000, -81.1234510000, 0.0000000000, 0.0000000000, -0.3875769973, 0.1854330003, 12.0714626312, 0.1825000048, 0.0424860008, -0.0175219998, 0.0000000000, 0.0000000000, 0.0000000000, 0.0000000000, 0.0000000000, 0, 0.0800000429, 0.1399999857, 0.2122598290, 0.1087049916, 90.0000000000, 90.0000000000, 90.0000000000, 0.0000000000, 0.0000000000, 0.0000000000, 25.0019989014, 0.0000000000, 0.0000000000, 5, 2, 10, 1, 0
1536699986328, 10328, AUTO, 0, 40.1234567000, -81.1234567000, 0, -0.4205821262, 2.0824268575, 2.1244742742, -0.4846484928, -0.3002263011, 0.1604824066, 0.0925939977, -0.4205821262, -0.3003215708, 0.0207207046, -0.3138684332, 0.0000000000, 0.0000000000, 1500, 1570, 40.1234540000, -81.1234510000, 0.0000000000, 0.0000000000, 1.2761559486, -1.4396740198, 10.1104755402, 0.0925939977, 0.0113129998, -0.0729390010, 0.0000000000, 0.0000000000, 0.0000000000, 0.0000000000, 0.0000000000, 0, 0.0000000000, 0.1399999857, 0.2120758891, 0.1088889241, 90.0000000000, 90.0000000000, 90.0000000000, 0.0000000000, 0.0000000000, 0.0000000000, 24.4640007019, 0.0000000000, 0.0000000000, 5, 2, 10, 1, 0
1536699986529, 10529, AUTO, 0, 40.1234567000, -81.1234567000, 0, -0.4309245549, 2.0823346866, 2.1264556706, -0.4846484928, -0.3002263011, 0.1619538814, 0.0988700017, -0.4309245549, -0.3004137417, 0.0407398113, -0.2924127434, 0.0000000000, 0.0000000000, 1510, 1570, 40.1234540000, -81.1234510000, 0.0000000000, 0.0000000000, 0.2544130087, -0.5507829785, 9.5886192322, 0.0988700017, -0.2382729948, 0.1826570034, 0.0000000000, 0.0000000000, 0.0000000000, 0.0000000000, 0.0000000000, 0, 0.0199999809, 0.1399999857, 0.2389302552, 0.0849775001, 90.0000000000, 90.0000000000, 90.0000000000, 0.0000000000, 0.0000000000, 0.0000000000, 25.0019989014, 0.0000000000, 0.0000000000, 5, 2, 10, 1, 0
1536699986729, 10729, AUTO, 0, 40.1234567000, -81.1234567000, 0, -0.4309245549, 2.0823346866, 2.1264556706, -0.4846484928, -0.3002263011, 0.1603904366, 0.0988700017, -0.4309245549, -0.3004137417, 0.0407398113, -0.2924127434, 0.0000000000, 0.0000000000, 1500, 1570, 40.1234540000, -81.1234510000, 0.0000000000, 0.0000000000, -1.2596060038, 1.9512410164, 12.7854242325, 0.1637610048, 0.3647739887, -0.1530479938, 0.0000000000, 0.0000000000, 0.0000000000, 0.0000000000, 0.0000000000, 0, 0.0000000000, 0.1399999857, 0.0169219282, 0.3038589358, 90.0000000000, 90.0000000000, 90.0000000000, 0.0000000000, 0.0000000000, 0.0000000000, 25.0019989014, 0.0000000000, 0.0000000000, 5, 2, 10, 1, 0
1536699986929, 10929, AUTO, 0, 40.1234567000, -81.1234567000, 0, -0.4309245549, 2.0823346866, 2.1264556706, -0.4846484928, -0.3002263011, 0.1618619114, 0.0988700017, -0.4309245549, -0.3004137417, 0.0407398113, -0.2924127434, 0.0000000000, 0.0000000000, 1510, 1570, 40.1234540000, -81.1234510000, 0.0000000000, 0.0000000000, -1.4076019526, 0.5041310191, 9.2870340347, -0.3148509860, 0.1029310003, -0.3128300011, 0.0000000000, 0.0000000000, 0.0000000000, 0.0000000000, 0.0000000000, 0, 0.0199999809, 0.1399999857, 0.1631494462, 0.1605743766, 90.0000000000, 90.0000000000, 90.0000000000, 0.0000000000, 0.0000000000, 0.0000000000, 25.0019989014, 0.0000000000, 0.0000000000, 5, 2, 10, 1, 0
1536699987130, 11130, AUTO, 0, 40.1234567000, -81.1234567000, 0, -0.4309245549, 2.0823346866, 2.1264556706, -0.4846484928, -0.3002263011, 0.1612181365, 0.0988700017, -0.4309245549, -0.3004137417, 0.0407398113, -0.2924127434, 0.0000000000, 0.0000000000, 1500, 1570, 40.1234540000, -81.1234510000, 0.0000000000, 0.0000000000, -0.8880400062, -0.0121229999, 9.1503429413, 0.0113129998, -0.0110350000, 0.0966010019, 0.0000000000, 0.0000000000, 0.0000000000, 0.0000000000, 0.0000000000, 0, 0.0000000000, 0.1399999857, 0.1618619114, 0.1605743766, 90.0000000000, 90.0000000000, 90.0000000000, 0.0000000000, 0.0000000000, 0.0000000000, 25.0019989014, 0.0000000000, 0.0000000000, 5, 2, 10, 1, 0
1536699987330, 11330, AUTO, 0, 40.1234567000, -81.1234567000, 0, -0.4361012629, 2.0822924118, 2.1274693886, -0.5696745433, -0.3002263011, 0.1608502716, 0.0226399992, -0.4361012629, -0.3004560165, 0.0503253723, -0.2828081847, 0.0000000000, 0.0000000000, 1490, 1570, 40.1234540000, -81.1234500000, 0.0000000000, 0.0000000000, -1.3661299944, -0.4417769909, 10.2056112289, 0.0032420000, 0.1437679976, -0.1092979982, 0.0000000000, 0.0000000000, 0.0000000000, 0.0000000000, 0.0000000000, 0, -0.0199999809, 0.1399999857, 0.1611261666, 0.1605743766, 90.0000000000, 90.0000000000, 90.0000000000, 0.0000000000, 0.0000000000, 0.0000000000, 24.4640007019, 0.0000000000, 0.0000000000, 5, 2, 10, 1, 0
1536699987536, 11536, AUTO, 0, 40.1234567000, -81.1234567000, 0, -0.4361012629, 2.0822924118, 2.1274693886, -0.5696745433, -0.3002263011, 0.1611261815, 0.0226399992, -0.4361012629, -0.3004560165, 0.0503253723, -0.2828081847, 0.0000000000, 0.0000000000, 1510, 1570, 40.1234540000, -81.1234500000, 0.0000000000, 0.0000000000, -0.5113160014, -0.2983849943, 9.5259351730, 0.0168529991, -0.0336030014, 0.0040670000, 0.0000000000, 0.0000000000, 0.0000000000, 0.0000000000, 0.0000000000, 0, 0.0199999809, 0.1399999857, 0.1745533645, 0.1476989985, 90.0000000000, 90.0000000000, 90.0000000000, 0.0000000000, 0.0000000000, 0.0000000000, 24.4640007019, 0.0000000000, 0.0000000000, 5, 2, 10, 1, 0
1536699987736, 11736, AUTO, 0, 40.1234567000, -81.1234567000, 0, -0.4465876514, 2.0822506943, 2.1296028935, -0.5696745433, -0.3002263011, 0.1592868268, -0.0168219991, -0.4465876514, -0.3004977340, 0.0601204648, -0.2809260402, 0.0000000000, 0.0000000000, 1510, 1570, 40.1234540000, -81.1234500000, 0.0000000000, 0.0000000000, -0.5318480134, -0.1809840053, 9.5088129044, -0.0032430000, -0.1246730015, 0.0753709972, 0.0000000000, 0.0000000000, 0.0000000000, 0.0000000000, 0.0000000000, 0, 0.0199999809, 0.1399999857, 0.1565278322, 0.1620458364, 90.0000000000, 90.0000000000, 90.0000000000, 0.0000000000, 0.0000000000, 0.0000000000, 25.0019989014, 0.0000000000, 0.0000000000, 5, 2, 10, 1, 0
1536699987937, 11937, AUTO, 0, 40.1234567000, -81.1234567000, 0, -0.4623888273, 2.0822097852, 2.1329324924, -0.6547005960, -0.3002263011, 0.1602984667, 0.1448629946, -0.4623888273, -0.3005386431, 0.0698576559, -0.2831865757, 0.0000000000, 0.0000000000, 1500, 1570, 40.1234540000, -81.1234490000, 0.0000000000, 0.0000000000, -0.2973499894, -1.0359879732, 10.6440668106, 0.0796229988, -0.4175440073, 0.1199899986, 0.0000000000, 0.0000000000, 0.0000000000, 0.0000000000, 0.0000000000, 0, 0.0000000000, 0.1399999857, 0.1475150585, 0.1730818897, 90.0000000000, 90.0000000000, 90.0000000000, 0.0000000000, 0.0000000000, 0.0000000000, 25.0019989014, 0.0000000000, 0.0000000000, 5, 2, 10, 1, 0
1536699988137, 12137, AUTO, 0, 40.1234567000, -81.1234567000, 0, -0.4781903849, 2.0821698028, 2.1363747640, -0.6547005960, -0.3002263011, 0.1538607776, -0.0573550016, -0.4781903849, -0.3005786255, 0.0796164082, -0.2695505673, 0.0000000000, 0.0000000000, 1490, 1570, 40.1234540000, -81.1234490000, 0.0000000000, 0.0000000000, 0.6285709739, -0.0505979992, 9.9098844528, -0.0331289992, -0.4685809910, 0.1329810023, 0.0000000000, 0.0000000000, 0.0000000000, 0.0000000000, 0.0000000000, 0, -0.0199999809, 0.1399999857, 0.1475150585, 0.1602064967, 90.0000000000, 90.0000000000, 90.0000000000, 0.0000000000, 0.0000000000, 0.0000000000, 25.0019989014, 0.0000000000, 0.0000000000, 5, 2, 10, 1, 0
1536699988338, 12338, AUTO, 0, 40.1234567000, -81.1234567000, 0, -0.4781903849, 2.0821698028, 2.1363747640, -0.6547005960, -0.3002263011, 0.1619538814, -0.0573550016, -0.4781903849, -0.3005786255, 0.0796164082, -0.2695505673, 0.0000000000, 0.0000000000, 1490, 1570, 40.1234540000, -81.1234490000, 0.0000000000, 0.0000000000, 1.7815370560, 1.5342160463, 10.8944358826, -0.2005680054, 0.0551199988, 0.1191650033, 0.0000000000, 0.0000000000, 0.0000000000, 0.0000000000, 0.0000000000, 0, -0.0199999809, 0.1399999857, 0.1633333862, 0.1605743766, 90.0000000000, 90.0000000000, 90.0000000000, 0.0000000000, 0.0000000000, 0.0000000000, 25.0019989014, 0.0000000000, 0.0000000000, 5, 2, 10, 1, 0
1536699988538, 12538, AUTO, 0, 40.1234567000, -81.1234567000, 0, -0.4781903849, 2.0821698028, 2.1363747640, -0.6547005960, -0.3002263011, 0.1637932211, -0.0573550016, -0.4781903849, -0.3005786255, 0.0796164082, -0.2695505673, 0.0000000000, 0.0000000000, 1510, 1570, 40.1234540000, -81.1234490000, 0.0000000000, 0.0000000000, 0.7353850007, 0.1452260017, 8.8226890564, -0.1037740037, -0.1076140031, -0.0482349992, 0.0000000000, 0.0000000000, 0.0000000000, 0.0000000000, 0.0000000000, 0, 0.0199999809, 0.1399999857, 0.1605743766, 0.1670120656, 90.0000000000, 90.0000000000, 90.0000000000, 0.0000000000, 0.0000000000, 0.0000000000, 25.0019989014, 0.0000000000, 0.0000000000, 5, 2, 10, 1, 0
1536699988738, 12738, AUTO, 0, 40.1234567000, -81.1234567000, 0, -0.5097852815, 2.0820886808, 2.1435891183, -0.6547005960, -0.3002263011, 0.1607583165, -0.0429029986, -0.5097852815, -0.3006597475, 0.0996814033, -0.2847232218, 0.0000000000, 0.0000000000, 1500, 1570, 40.1234540000, -81.1234490000, 0.0000000000, 0.0000000000, 2.2903029919, 0.6667349935, 10.7744922638, -0.0429029986, -0.3004440069, 0.0536069982, 0.0000000000, 0.0000000000, 0.0000000000, 0.0000000000, 0.0000000000, 0, 0.0000000000, 0.1399999857, 0.1476989985, 0.1738176197, 90.0000000000, 90.0000000000, 90.0000000000, 0.0000000000, 0.0000000000, 0.0000000000, 24.4640007019, 0.0000000000, 0.0000000000, 5, 2, 10, 1, 0
1536699988939, 12939, AUTO, 0, 40.1234567000, -81.1234567000, 0, -0.5308972643, 2.0820461348, 2.1486665662, -0.7397266477, -0.3002263011, 0.1630574763, 0.0321689993, -0.5308972643, -0.3007022935, 0.1096603248, -0.2904657797, 0.0000000000, 0.0000000000, 1510, 1570, 40.1234540000, -81.1234480000, 0.0000000000, 0.0000000000, 0.1953359991, -0.0564059988, 10.6856765747, 0.0199580006, -0.0315219983, 0.0909809992, 0.0000000000, 0.0000000000, 0.0000000000, 0.0000000000, 0.0000000000, 0, 0.0199999809, 0.1399999857, 0.1600225717, 0.1660923958, 90.0000000000, 90.0000000000, 90.0000000000, 0.0000000000, 0.0000000000, 0.0000000000, 24.4640007019, 0.0000000000, 0.0000000000, 5, 2, 10, 1, 0
1536699989140, 13140, AUTO, 0, 40.1234567000, -81.1234567000, 0, -0.5308972643, 2.0820461348, 2.1486665662, -0.7397266477, -0.3002263011, 0.1626895964, 0.0321689993, -0.5308972643, -0.3007022935, 0.1096603248, -0.2904657797, 0.0000000000, 0.0000000000, 1510, 1570, 40.1234540000, -81.1234480000, 0.0000000000, 0.0000000000, 0.7666540146, 0.0114599997, 9.5264396667, -0.0189289991, 0.0706019998, -0.0105670001, 0.0000000000, 0.0000000000, 0.0000000000, 0.0000000000, 0.0000000000, 0, 0.0199999809, 0.1399999857, 0.1791516989, 0.1462275088, 90.0000000000, 90.0000000000, 90.0000000000, 0.0000000000, 0.0000000000, 0.0000000000, 24.4640007019, 0.0000000000, 0.0000000000, 5, 2, 10, 1, 0
1536699989340, 13340, AUTO, 0, 40.1234567000, -81.1234567000, 0, -0.5520114106, 2.0820030188, 2.1539389888, -0.7397266477, -0.3002263011, 0.1612181365, 0.0657650009, -0.5520114106, -0.3007454095, 0.1195751764, -0.2889643243, 0.0000000000, 0.0000000000, 1510, 1570, 40.1234540000, -81.1234480000, 0.0000000000, 0.0000000000, 1.3512159586, -0.1006809995, 9.4823551178, 0.1178530008, 0.1248660013, -0.1071759984, 0.0000000000, 0.0000000000, 0.0000000000, 0.0000000000, 0.0000000000, 0, 0.0199999809, 0.1399999857, 0.1877966076, 0.1346396804, 90.0000000000, 90.0000000000, 90.0000000000, 0.0000000000, 0.0000000000, 0.0000000000, 24.4640007019, 0.0000000000, 0.0000000000, 5, 2, 10, 1, 0
1536699989541, 13541, AUTO, 0, 40.1234567000, -81.1234567000, 0, -0.5731288467, 2.0819607035, 2.1594066420, -0.8247526982, -0.3002263011, 0.1606663465, 0.0578499995, -0.5731288467, -0.3007877248, 0.1292647100, -0.2846215497, 0.0000000000, 0.0000000000, 1500, 1570, 40.1234540000, -81.1234470000, 0.0000000000, 0.0000000000, 0.6319429874, 2.6700470448, 11.1248788834, -0.0358919986, 0.1461849958, -0.0952100009, 0.0000000000, 0.0000000000, 0.0000000000, 0.0000000000, 0.0000000000, 0, 0.0000000000, 0.1399999857, 0.1736336946, 0.1476989985, 90.0000000000, 90.0000000000, 90.0000000000, 0.0000000000, 0.0000000000, 0.0000000000, 24.4640007019, 0.0000000000, 0.0000000000, 5, 2, 10, 1, 0
1536699989742, 13742, AUTO, 0, 40.1234567000, -81.1234567000, 0, -0.5995551561, 2.0819174397, 2.1665287007, -0.8247526982, -0.3002263011, 0.1612181365, 0.0502020009, -0.5995551561, -0.3008309886, 0.1392445652, -0.2813455308, 0.0000000000, 0.0000000000, 1490, 1570, 40.1234540000, -81.1234470000, 0.0000000000, 0.0000000000, 0.8164749742, -0.0089889998, 10.1507711411, 0.0502020009, 0.1331740022, 0.0363660008, 0.0000000000, 0.0000000000, 0.0000000000, 0.0000000000, 0.0000000000, 0, -0.0199999809, 0.1399999857, 0.1747372895, 0.1476989985, 90.0000000000, 90.0000000000, 90.0000000000, 0.0000000000, 0.0000000000, 0.0000000000, 24.4640007019, 0.0000000000, 0.0000000000, 5, 2, 10, 1, 0
1536699989942, 13942, AUTO, 0, 40.1234567000, -81.1234567000, 0, -0.6312962314, 2.0818742379, 2.1754850664, -0.9097787488, -0.3002263011, 0.1608502865, 0.0318790004, -0.6312962314, -0.3008741904, 0.1491830840, -0.2791886407, 0.0000000000, 0.0000000000, 1530, 1570, 40.1234540000, -81.1234460000, 0.0000000000, 0.0000000000, 0.5524169803, 1.1199109554, 9.0245761871, 0.0153040001, 0.1207199991, 0.0092810001, 0.0000000000, 0.0000000000, 0.0000000000, 0.0000000000, 0.0000000000, 0, 0.0599999428, 0.1399999857, 0.1736336946, 0.1480668634, 90.0000000000, 90.0000000000, 90.0000000000, 0.0000000000, 0.0000000000, 0.0000000000, 24.4640007019, 0.0000000000, 0.0000000000, 5, 2, 10, 1, 0
1536699990143, 14143, AUTO, 0, 40.1234567000, -81.1234567000, 0, -0.6630367746, 2.0818302584, 2.1848649820, -0.9097787488, -0.3002263011, 0.1608502865, 0.0247029997, -0.6630367746, -0.3009181699, 0.1592345427, -0.2790883713, 0.0000000000, 0.0000000000, 1520, 1570, 40.1234540000, -81.1234460000, 0.0000000000, 0.0000000000, -0.0077209999, 0.2217739969, 9.4426546097, 0.0256389994, -0.0446429998, -0.0337309986, 0.0000000000, 0.0000000000, 0.0000000000, 0.0000000000, 0.0000000000, 0, 0.0399999619, 0.1399999857, 0.1736336946, 0.1480668634, 90.0000000000, 90.0000000000, 90.0000000000, 0.0000000000, 0.0000000000, 0.0000000000, 24.4640007019, 0.0000000000, 0.0000000000, 5, 2, 10, 1, 0
1536699990344, 14344, AUTO, 0, 40.1234567000, -81.1234567000, 0, -0.6896082649, 2.0818283566, 2.1930729275, -0.9097787488, -0.3002263011, 0.1488945633, -0.0231970008, -0.6896082649, -0.3009200717, 0.1592817096, -0.2800145705, 0.0000000000, 0.0000000000, 1540, 1570, 40.1234540000, -81.1234460000, 0.0000000000, 0.0000000000, -0.1466570050, 0.3334029913, 9.5939874649, 0.0695130005, 0.0580280013, 0.0318769999, 0.0000000000, 0.0000000000, 0.0000000000, 0.0000000000, 0.0000000000, 0, 0.0800000429, 0.1399999857, 0.1478829235, 0.1499062032, 90.0000000000, 90.0000000000, 90.0000000000, 0.0000000000, 0.0000000000, 0.0000000000, 24.4640007019, 0.0000000000, 0.0000000000, 5, 2, 10, 1, 0
1536699990544, 14544, AUTO, 0, 40.1234567000, -81.1234567000, 0, -0.7161777750, 2.0818256657, 2.2015696009, -0.9097787488, -0.3002263011, 0.1613101065, 0.0013940000, -0.7161777750, -0.3009227626, 0.1594054078, -0.2856351737, 0.0000000000, 0.0000000000, 1570, 1570, 40.1234540000, -81.1234460000, 0.0000000000, 0.0000000000, -0.0523249991, 0.1998320073, 9.5203170776, 0.0734480023, -0.0615470000, -0.0343719982, 0.0000000000, 0.0000000000, 0.0000000000, 0.0000000000, 0.0000000000, 0, 0.1399999857, 0.1399999857, 0.1997523159, 0.1228679046, 90.0000000000, 90.0000000000, 90.0000000000, 0.0000000000, 0.0000000000, 0.0000000000, 24.4640007019, 0.0000000000, 0.0000000000, 5, 2, 10, 1, 0
1536699990745, 14745, AUTO, 0, 40.1234567000, -81.1234567000, 0, -0.7427482274, 2.0818223312, 2.2103527203, -0.9097787488, -0.3002263011, 0.1611261666, 0.0726429969, -0.7427482274, -0.3009260971, 0.1594821523, -0.2886397532, 0.0000000000, 0.0000000000, 1560, 1570, 40.1234540000, -81.1234460000, 0.0000000000, 0.0000000000, -2.9628770351, 1.3335909843, 8.4399499893, -0.0022290000, 0.2067939937, -0.0834119990, 0.0000000000, 0.0000000000, 0.0000000000, 0.0000000000, 0.0000000000, 0, 0.1200000048, 0.1399999857, 0.1995683759, 0.1226839721, 90.0000000000, 90.0000000000, 90.0000000000, 0.0000000000, 0.0000000000, 0.0000000000, 24.4640007019, 0.0000000000, 0.0000000000, 5, 2, 10, 1, 0
1536699990945, 14945, AUTO, 0, 40.1234567000, -81.1234567000, 0, -0.7693232469, 2.0818215307, 2.2194231557, -0.9097787488, -0.3002263011, 0.1671959907, 0.0263800006, -0.7693232469, -0.3009268976, 0.1592189728, -0.2842962928, 0.0000000000, 0.0000000000, 1550, 1570, 40.1234540000, -81.1234460000, 0.0000000000, 0.0000000000, 0.4554550052, -3.0382540226, 14.2150001526, 0.1401859969, 0.0526180007, 0.1478880048, 0.0000000000, 0.0000000000, 0.0000000000, 0.0000000000, 0.0000000000, 0, 0.1000000238, 0.1399999857, 0.2387463152, 0.0956456736, 90.0000000000, 90.0000000000, 90.0000000000, 0.0000000000, 0.0000000000, 0.0000000000, 24.4640007019, 0.0000000000, 0.0000000000, 5, 2, 10, 1, 0
1536699991146, 15146, AUTO, 0, 40.1234567000, -81.1234567000, 0, -0.7958932915, 2.0818201537, 2.2287712498, -0.9948048004, -0.3002263011, 0.1613101065, 0.1075709984, -0.7958932915, -0.3009282746, 0.1592843779, -0.2845288309, 0.0000000000, 0.0000000000, 1540, 1570, 40.1234540000, -81.1234450000, 0.0000000000, 0.0000000000, -1.4908920527, -0.5181009769, 10.3056879044, 0.0713540018, 0.1308750063, 0.1393290013, 0.0000000000, 0.0000000000, 0.0000000000, 0.0000000000, 0.0000000000, 0, 0.0800000429, 0.1399999857, 0.2256869972, 0.0969332084, 90.0000000000, 90.0000000000, 90.0000000000, 0.0000000000, 0.0000000000, 0.0000000000, 24.4640007019, 0.0000000000, 0.0000000000, 5, 2, 10, 1, 0
1536699991347, 15347, AUTO, 0, 40.1234567000, -81.1234567000, 0, -0.8224638522, 2.0818207263, 2.2383977136, -0.9948048004, -0.3002263011, 0.1613101065, 0.1457960010, -0.8224638522, -0.3009277020, 0.1592803888, -0.2765905429, 0.0000000000, 0.0000000000, 1540, 1570, 40.1234540000, -81.1234450000, 0.0000000000, 0.0000000000, -1.6477999687, -0.3267770112, 7.7001237869, -0.0680460036, -0.7639799714, -0.0870269984, 0.0000000000, 0.0000000000, 0.0000000000, 0.0000000000, 0.0000000000, 0, 0.0800000429, 0.1399999857, 0.2389302552, 0.0836899653, 90.0000000000, 90.0000000000, 90.0000000000, 0.0000000000, 0.0000000000, 0.0000000000, 24.4640007019, 0.0000000000, 0.0000000000, 5, 2, 10, 1, 0
1536699991547, 15547, AUTO, 0, 40.1234567000, -81.1234567000, 0, -0.8437196915, 2.0818241315, 2.2462979839, -0.9948048004, -0.3002263011, 0.1605743766, 0.2914299965, -0.8437196915, -0.3009242968, 0.1593258636, -0.2648195546, 0.0000000000, 0.0000000000, 1540, 1570, 40.1234540000, -81.1234450000, 0.0000000000, 0.0000000000, -0.0446420014, 1.0882240534, 9.5507736206, 0.2914299965, 0.3858399987, -0.0607069992, 0.0000000000, 0.0000000000, 0.0000000000, 0.0000000000, 0.0000000000, 0, 0.0800000429, 0.1399999857, 0.2126276940, 0.1085210517, 90.0000000000, 90.0000000000, 90.0000000000, 0.0000000000, 0.0000000000, 0.0000000000, 24.4640007019, 0.0000000000, 0.0000000000, 5, 2, 10, 1, 0
1536699991748, 15748, AUTO, 0, 40.1234567000, -81.1234567000, 0, -0.8649730013, 2.0818284593, 2.2543708716, -0.9948048004, -0.3002263011, 0.1544125825, 0.2914299965, -0.8649730013, -0.3009199690, 0.1594500246, -0.2698853987, 0.0000000000, 0.0000000000, 1540, 1570, 40.1234540000, -81.1234450000, 0.0000000000, 0.0000000000, -0.8121529818, 0.2781409919, 7.7212400436, 0.0756909996, -0.1617719978, 0.1288200021, 0.0000000000, 0.0000000000, 0.0000000000, 0.0000000000, 0.0000000000, 0, 0.0800000429, 0.1399999857, 0.2131794989, 0.0956456736, 90.0000000000, 90.0000000000, 90.0000000000, 0.0000000000, 0.0000000000, 0.0000000000, 24.4640007019, 0.0000000000, 0.0000000000, 5, 2, 10, 1, 0
1536699991949, 15949, AUTO, 0, 40.1234567000, -81.1234567000, 0, -0.8649730013, 2.0818284593, 2.2543708716, -0.9948048004, -0.3002263011, 0.1606663316, 0.2914299965, -0.8649730013, -0.3009199690, 0.1594500246, -0.2698853987, 0.0000000000, 0.0000000000, 1480, 1570, 40.1234540000, -81.1234450000, 0.0000000000, 0.0000000000, 0.5054100156, -0.5521649718, 10.4229221344, 0.2307540029, -0.0459199995, 0.0301360004, 0.0000000000, 0.0000000000, 0.0000000000, 0.0000000000, 0.0000000000, 0, -0.0400000215, 0.1399999857, 0.2256869972, 0.0956456736, 90.0000000000, 90.0000000000, 90.0000000000, 0.0000000000, 0.0000000000, 0.0000000000, 24.4640007019, 0.0000000000, 0.0000000000, 5, 2, 10, 1, 0
1536699992149, 16149, AUTO, 0, 40.1234567000, -81.1234567000, 0, -0.8862259237, 2.0818365230, 2.2626178856, -0.9948048004, -0.3002263011, 0.1614940464, 0.1536069959, -0.8862259237, -0.3009119053, 0.1595327688, -0.2432988985, 0.0000000000, 0.0000000000, 1480, 1570, 40.1234540000, -81.1234450000, 0.0000000000, 0.0000000000, 0.2971970141, 0.7003819942, 9.6710748672, 0.1146399975, -0.0982080027, -0.0518199988, 0.0000000000, 0.0000000000, 0.0000000000, 0.0000000000, 0.0000000000, 0, -0.0400000215, 0.1399999857, 0.2128116190, 0.1101764590, 90.0000000000, 90.0000000000, 90.0000000000, 0.0000000000, 0.0000000000, 0.0000000000, 24.4640007019, 0.0000000000, 0.0000000000, 5, 2, 10, 1, 0
1536699992350, 16350, AUTO, 0, 40.1234567000, -81.1234567000, 0, -0.8862259237, 2.0818365230, 2.2626178856, -0.9948048004, -0.3002263011, 0.1605743766, 0.1536069959, -0.8862259237, -0.3009119053, 0.1595327688, -0.2432988985, 0.0000000000, 0.0000000000, 1490, 1570, 40.1234540000, -81.1234450000, 0.0000000000, 0.0000000000, -4.4095239639, -0.2097939998, 12.8146762848, -0.0241880007, 0.0130930003, -0.5787199736, 0.0000000000, 0.0000000000, 0.0000000000, 0.0000000000, 0.0000000000, 0, -0.0199999809, 0.1399999857, 0.2126276940, 0.1085210517, 90.0000000000, 90.0000000000, 90.0000000000, 0.0000000000, 0.0000000000, 0.0000000000, 24.4640007019, 0.0000000000, 0.0000000000, 5, 2, 10, 1, 0
1536699992555, 16555, AUTO, 0, 40.1234567000, -81.1234567000, 0, -0.8862259237, 2.0818365230, 2.2626178856, -0.9948048004, -0.3002263011, 0.1618619114, 0.1536069959, -0.8862259237, -0.3009119053, 0.1595327688, -0.2432988985, 0.0000000000, 0.0000000000, 1490, 1570, 40.1234540000, -81.1234450000, 0.0000000000, 0.0000000000, 1.1664199829, -0.4909749925, 9.5690956116, -0.0826980025, -0.0348820016, -0.0841230005, 0.0000000000, 0.0000000000, 0.0000000000, 0.0000000000, 0.0000000000, 0, -0.0199999809, 0.1399999857, 0.1392380297, 0.1844857931, 90.0000000000, 90.0000000000, 90.0000000000, 0.0000000000, 0.0000000000, 0.0000000000, 24.4640007019, 0.0000000000, 0.0000000000, 5, 2, 10, 1, 0
1536699992756, 16756, AUTO, 0, 40.1234567000, -81.1234567000, 0, -0.9127911950, 2.0818503853, 2.2731671281, -1.0798308510, -0.3002263011, 0.1622297764, -0.0948299989, -0.9127911950, -0.3008980430, 0.1595721468, -0.2302061840, 0.0000000000, 0.0000000000, 1500, 1570, 40.1234540000, -81.1234440000, 0.0000000000, 0.0000000000, 0.1868450046, -0.5074499846, 9.7965068817, -0.0948299989, 0.0613330007, -0.0572649986, 0.0000000000, 0.0000000000, 0.0000000000, 0.0000000000, 0.0000000000, 0, 0.0000000000, 0.1399999857, 0.1346396804, 0.1898198724, 90.0000000000, 90.0000000000, 90.0000000000, 0.0000000000, 0.0000000000, 0.0000000000, 24.4640007019, 0.0000000000, 0.0000000000, 5, 2, 10, 1, 0
1536699992956, 16956, AUTO, 0, 40.1234567000, -81.1234567000, 0, -0.9127911950, 2.0818503853, 2.2731671281, -1.0798308510, -0.3002263011, 0.1621378064, -0.0948299989, -0.9127911950, -0.3008980430, 0.1595721468, -0.2302061840, 0.0000000000, 0.0000000000, 1490, 1570, 40.1234540000, -81.1234440000, 0.0000000000, 0.0000000000, 0.8250799775, -0.6841080189, 8.2185125351, 0.0360039994, -0.0600549988, 0.1927970052, 0.0000000000, 0.0000000000, 0.0000000000, 0.0000000000, 0.0000000000, 0, -0.0199999809, 0.1399999857, 0.1469632685, 0.1773123592, 90.0000000000, 90.0000000000, 90.0000000000, 0.0000000000, 0.0000000000, 0.0000000000, 24.4640007019, 0.0000000000, 0.0000000000, 5, 2, 10, 1, 0
1536699993157, 17157, AUTO, 0, 40.1234567000, -81.1234567000, 0, -0.9127911950, 2.0818503853, 2.2731671281, -1.0798308510, -0.3002263011, 0.1640691161, -0.0948299989, -0.9127911950, -0.3008980430, 0.1595721468, -0.2302061840, 0.0000000000, 0.0000000000, 1470, 1570, 40.1234540000, -81.1234440000, 0.0000000000, 0.0000000000, 0.4380620122, -0.8121100068, 8.7518157959, -0.0276250001, 0.0949240029, 0.2565310001, 0.0000000000, 0.0000000000, 0.0000000000, 0.0000000000, 0.0000000000, 0, -0.0600000024, 0.1399999857, 0.1475150585, 0.1806231737, 90.0000000000, 90.0000000000, 90.0000000000, 0.0000000000, 0.0000000000, 0.0000000000, 24.4640007019, 0.0000000000, 0.0000000000, 5, 2, 10, 1, 0
1536699993357, 17357, AUTO, 0, 40.1234567000, -81.1234567000, 0, -0.9393607232, 2.0818639776, 2.2839781500, -1.1648569037, -0.3002263011, 0.1614940464, -0.0011130000, -0.9393607232, -0.3008844507, 0.1594023240, -0.2417287752, 0.0000000000, 0.0000000000, 1480, 1570, 40.1234540000, -81.1234430000, 0.0000000000, 0.0000000000, -0.0887809992, -0.1319659948, 9.6692276001, -0.0044339998, -0.0331160016, -0.0295679998, 0.0000000000, 0.0000000000, 0.0000000000, 0.0000000000, 0.0000000000, 0, -0.0400000215, 0.1399999857, 0.1605743766, 0.1624137163, 90.0000000000, 90.0000000000, 90.0000000000, 0.0000000000, 0.0000000000, 0.0000000000, 24.4640007019, 0.0000000000, 0.0000000000, 5, 2, 10, 1, 0
1536699993558, 17558, AUTO, 0, 40.1234567000, -81.1234567000, 0, -0.9659292049, 2.0818739815, 2.2950421572, -1.1648569037, -0.3002263011, 0.1616779864, -0.0851060003, -0.9659292049, -0.3008744468, 0.1593623826, -0.2439052303, 0.0000000000, 0.0000000000, 1480, 1570, 40.1234540000, -81.1234430000, 0.0000000000, 0.0000000000, -1.2754789591, 0.6303439736, 10.2049379349, -0.1033769995, 0.0907680020, -0.0082130004, 0.0000000000, 0.0000000000, 0.0000000000, 0.0000000000, 0.0000000000, 0, -0.0400000215, 0.1399999857, 0.1500901431, 0.1732658148, 90.0000000000, 90.0000000000, 90.0000000000, 0.0000000000, 0.0000000000, 0.0000000000, 23.9249992371, 0.0000000000, 0.0000000000, 5, 2, 10, 1, 0
1536699993759, 17759, AUTO, 0, 40.1234567000, -81.1234567000, 0, -0.9871862175, 2.0818812487, 2.3040759887, -1.1648569037, -0.3002263011, 0.1628735512, -0.0672240034, -0.9871862175, -0.3008671796, 0.1592582002, -0.2544379282, 0.0000000000, 0.0000000000, 1470, 1570, 40.1234540000, -81.1234430000, 0.0000000000, 0.0000000000, -0.8953109980, -1.4002950191, 10.9847040176, -0.0366370007, 0.0035920001, 0.0034129999, 0.0000000000, 0.0000000000, 0.0000000000, 0.0000000000, 0.0000000000, 0, -0.0600000024, 0.1399999857, 0.1403416395, 0.1854054630, 90.0000000000, 90.0000000000, 90.0000000000, 0.0000000000, 0.0000000000, 0.0000000000, 24.4640007019, 0.0000000000, 0.0000000000, 5, 2, 10, 1, 0
1536699993959, 17959, AUTO, 0, 40.1234567000, -81.1234567000, 0, -1.0137562809, 2.0818845899, 2.3155874509, -1.2498829553, -0.3002263011, 0.1591029167, -0.0429640003, -1.0137562809, -0.3008638384, 0.1591628514, -0.2633069812, 0.0000000000, 0.0000000000, 1480, 1570, 40.1234540000, -81.1234420000, 0.0000000000, 0.0000000000, 0.4328399897, 0.1617649943, 9.5112953186, -0.0789299980, -0.0262509994, 0.0164700001, 0.0000000000, 0.0000000000, 0.0000000000, 0.0000000000, 0.0000000000, 0, -0.0400000215, 0.1399999857, 0.1361111552, 0.1820946634, 90.0000000000, 90.0000000000, 90.0000000000, 0.0000000000, 0.0000000000, 0.0000000000, 24.4640007019, 0.0000000000, 0.0000000000, 5, 2, 10, 1, 0
1536699994160, 18160, AUTO, 0, 40.1234567000, -81.1234567000, 0, -1.0350156155, 2.0818847954, 2.3249734677, -1.2498829553, -0.3002263011, 0.1605743766, -0.0896819979, -1.0350156155, -0.3008636329, 0.1590319465, -0.2700170119, 0.0000000000, 0.0000000000, 1480, 1570, 40.1234540000, -81.1234420000, 0.0000000000, 0.0000000000, 0.6280189753, 0.1928499937, 10.0876274109, -0.1175960004, 0.0296650007, 0.0694959983, 0.0000000000, 0.0000000000, 0.0000000000, 0.0000000000, 0.0000000000, 0, -0.0400000215, 0.1399999857, 0.1223160997, 0.1988326460, 90.0000000000, 90.0000000000, 90.0000000000, 0.0000000000, 0.0000000000, 0.0000000000, 24.4640007019, 0.0000000000, 0.0000000000, 5, 2, 10, 1, 0
1536699994360, 18360, AUTO, 0, 40.1234567000, -81.1234567000, 0, -1.0350156155, 2.0818847954, 2.3249734677, -1.2498829553, -0.3002263011, 0.1612181365, -0.0896819979, -1.0350156155, -0.3008636329, 0.1590319465, -0.2700170119, 0.0000000000, 0.0000000000, 1480, 1570, 40.1234540000, -81.1234420000, 0.0000000000, 0.0000000000, -2.0600290298, -0.2502070069, 7.5467348099, -0.0210710000, 0.2451290041, 0.1429850012, 0.0000000000, 0.0000000000, 0.0000000000, 0.0000000000, 0.0000000000, 0, -0.0400000215, 0.1399999857, 0.1346396804, 0.1877966076, 90.0000000000, 90.0000000000, 90.0000000000, 0.0000000000, 0.0000000000, 0.0000000000, 24.4640007019, 0.0000000000, 0.0000000000, 5, 2, 10, 1, 0
1536699994560, 18560, AUTO, 0, 40.1234567000, -81.1234567000, 0, -1.0350156155, 2.0818847954, 2.3249734677, -1.2498829553, -0.3002263011, 0.1560679972, -0.0896819979, -1.0350156155, -0.3008636329, 0.1590319465, -0.2700170119, 0.0000000000, 0.0000000000, 1480, 1570, 40.1234540000, -81.1234420000, 0.0000000000, 0.0000000000, 0.3126319945, 0.9786670208, 9.5380458832, -0.0891669989, -0.0527479984, 0.1185820028, 0.0000000000, 0.0000000000, 0.0000000000, 0.0000000000, 0.0000000000, 0, -0.0400000215, 0.1399999857, 0.1346396804, 0.1774962991, 90.0000000000, 90.0000000000, 90.0000000000, 0.0000000000, 0.0000000000, 0.0000000000, 24.4640007019, 0.0000000000, 0.0000000000, 5, 2, 10, 1, 0
1536699994761, 18761, AUTO, 0, 40.1234567000, -81.1234567000, 0, -1.0350156155, 2.0818847954, 2.3249734677, -1.2498829553, -0.3002263011, 0.1547804475, -0.0896819979, -1.0350156155, -0.3008636329, 0.1590319465, -0.2700170119, 0.0000000000, 0.0000000000, 1470, 1570, 40.1234540000, -81.1234420000, 0.0000000000, 0.0000000000, -0.4889200032, 0.2630369961, 9.0751857758, 0.0673390031, 0.5517140031, -0.2470680028, 0.0000000000, 0.0000000000, 0.0000000000, 0.0000000000, 0.0000000000, 0, -0.0600000024, 0.1399999857, 0.1346396804, 0.1749212146, 90.0000000000, 90.0000000000, 90.0000000000, 0.0000000000, 0.0000000000, 0.0000000000, 24.4640007019, 0.0000000000, 0.0000000000, 5, 2, 10, 1, 0
1536699994961, 18961, AUTO, 0, 40.1234567000, -81.1234567000, 0, -1.0615955075, 2.0818834479, 2.3369261247, -1.3349090058, -0.3002263011, 0.1597466767, 0.0673390031, -1.0615955075, -0.3008649804, 0.1583888203, -0.2816392506, 0.0000000000, 0.0000000000, 1490, 1570, 40.1234540000, -81.1234410000, 0.0000000000, 0.0000000000, -2.4085900784, -0.1840530038, 11.7434301376, -0.0538330004, 0.4639259875, -0.1998769939, 0.0000000000, 0.0000000000, 0.0000000000, 0.0000000000, 0.0000000000, 0, -0.0199999809, 0.1399999857, 0.1476989985, 0.1717943400, 90.0000000000, 90.0000000000, 90.0000000000, 0.0000000000, 0.0000000000, 0.0000000000, 24.4640007019, 0.0000000000, 0.0000000000, 5, 2, 10, 1, 0
1536699995161, 19161, AUTO, 0, 40.1234567000, -81.1234567000, 0, -1.0881762989, 2.0818804382, 2.3491176677, -1.3349090058, -0.3002263011, 0.1680237055, -0.0979479998, -1.0881762989, -0.3008679901, 0.1577838963, -0.2780028834, 0.0000000000, 0.0000000000, 1480, 1570, 40.1234540000, -81.1234410000, 0.0000000000, 0.0000000000, -1.0977959633, 0.1213909984, 9.5329771042, -0.0832670033, -0.0125059998, -0.0251100007, 0.0000000000, 0.0000000000, 0.0000000000, 0.0000000000, 0.0000000000, 0, -0.0400000215, 0.1399999857, 0.1488025934, 0.1872448027, 90.0000000000, 90.0000000000, 90.0000000000, 0.0000000000, 0.0000000000, 0.0000000000, 24.4640007019, 0.0000000000, 0.0000000000, 5, 2, 10, 1, 0
1536699995362, 19362, AUTO, 0, 40.1234567000, -81.1234567000, 0, -1.1200654963, 2.0818741567, 2.3640530282, -1.4199350564, -0.3002263011, 0.1605743766, 0.0019880000, -1.1200654963, -0.3008742716, 0.1575434107, -0.2909204132, 0.0000000000, 0.0000000000, 1470, 1570, 40.1234540000, -81.1234400000, 0.0000000000, 0.0000000000, -1.9873950481, 0.2917850018, 9.9324598312, 0.0019880000, -0.0737090036, 0.0126409996, 0.0000000000, 0.0000000000, 0.0000000000, 0.0000000000, 0.0000000000, 0, -0.0600000024, 0.1399999857, 0.1353754252, 0.1857733279, 90.0000000000, 90.0000000000, 90.0000000000, 0.0000000000, 0.0000000000, 0.0000000000, 25.0019989014, 0.0000000000, 0.0000000000, 5, 2, 10, 1, 0
1536699995562, 19562, AUTO, 0, 40.1234567000, -81.1234567000, 0, -1.1519532174, 2.0818646477, 2.3793185214, -1.4199350564, -0.3002263011, 0.1621378064, -0.1908620000, -1.1519532174, -0.3008837806, 0.1575275790, -0.2940674380, 0.0000000000, 0.0000000000, 1490, 1570, 40.1234540000, -81.1234400000, 0.0000000000, 0.0000000000, -0.9679949880, -0.4972409904, 9.9360828400, 0.0250870008, -0.1843750030, -0.2020239979, 0.0000000000, 0.0000000000, 0.0000000000, 0.0000000000, 0.0000000000, 0, -0.0199999809, 0.1399999857, 0.1506419331, 0.1736336946, 90.0000000000, 90.0000000000, 90.0000000000, 0.0000000000, 0.0000000000, 0.0000000000, 24.4640007019, 0.0000000000, 0.0000000000, 5, 2, 10, 1, 0
1536699995762, 19762, AUTO, 0, 40.1234567000, -81.1234567000, 0, -1.1519532174, 2.0818646477, 2.3793185214, -1.4199350564, -0.3002263011, 0.1591948569, -0.1908620000, -1.1519532174, -0.3008837806, 0.1575275790, -0.2940674380, 0.0000000000, 0.0000000000, 1490, 1570, 40.1234540000, -81.1234400000, 0.0000000000, 0.0000000000, -1.1844910383, -1.2039599419, 8.8624010086, -0.0916429982, -0.3804219961, 0.0484619997, 0.0000000000, 0.0000000000, 0.0000000000, 0.0000000000, 0.0000000000, 0, -0.0199999809, 0.1399999857, 0.1316967309, 0.1866929978, 90.0000000000, 90.0000000000, 90.0000000000, 0.0000000000, 0.0000000000, 0.0000000000, 24.4640007019, 0.0000000000, 0.0000000000, 5, 2, 10, 1, 0
1536699995963, 19963, AUTO, 0, 40.1234567000, -81.1234567000, 0, -1.1838370770, 2.0818505190, 2.3949053861, -1.4199350564, -0.3002263011, 0.1589189768, -0.0093799997, -1.1838370770, -0.3008979093, 0.1578495665, -0.3161323785, 0.0000000000, 0.0000000000, 1480, 1570, 40.1234540000, -81.1234400000, 0.0000000000, 0.0000000000, -2.2890369892, 0.3289520144, 10.1418933868, -0.0093799997, -0.0536019988, 0.0423699990, 0.0000000000, 0.0000000000, 0.0000000000, 0.0000000000, 0.0000000000, 0, -0.0400000215, 0.1399999857, 0.1180856228, 0.1997523159, 90.0000000000, 90.0000000000, 90.0000000000, 0.0000000000, 0.0000000000, 0.0000000000, 24.4640007019, 0.0000000000, 0.0000000000, 5, 2, 10, 1, 0
1536699996163, 20163, AUTO, 0, 40.1234567000, -81.1234567000, 0, -1.2369858600, 2.0818168793, 2.4215894650, -1.4199350564, -0.3002263011, 0.1645289510, 0.0312579982, -1.2369858600, -0.3009315490, 0.1580962370, -0.3258003947, 0.0000000000, 0.0000000000, 1480, 1570, 40.1234540000, -81.1234400000, 0.0000000000, 0.0000000000, 1.3793849945, 0.7716659904, 9.4788274765, 0.0312579982, -0.4826630056, -0.0124159995, 0.0000000000, 0.0000000000, 0.0000000000, 0.0000000000, 0.0000000000, 0, -0.0400000215, 0.1399999857, 0.1215803698, 0.2074775398, 90.0000000000, 90.0000000000, 90.0000000000, 0.0000000000, 0.0000000000, 0.0000000000, 24.4640007019, 0.0000000000, 0.0000000000, 5, 2, 10, 1, 0
1536699996363, 20363, AUTO, 0, 40.1234567000, -81.1234567000, 0, -1.2369858600, 2.0818168793, 2.4215894650, -1.4199350564, -0.3002263011, 0.1614020765, 0.0312579982, -1.2369858600, -0.3009315490, 0.1580962370, -0.3258003947, 0.0000000000, 0.0000000000, 1500, 1570, 40.1234540000, -81.1234400000, 0.0000000000, 0.0000000000, 1.2932029963, -0.7347210050, 10.4413175583, -0.0177510008, -0.2132499963, -0.0359079987, 0.0000000000, 0.0000000000, 0.0000000000, 0.0000000000, 0.0000000000, 0, 0.0000000000, 0.1399999857, 0.1473311186, 0.1754730344, 90.0000000000, 90.0000000000, 90.0000000000, 0.0000000000, 0.0000000000, 0.0000000000, 24.4640007019, 0.0000000000, 0.0000000000, 5, 2, 10, 1, 0
1536699996564, 20564, AUTO, 0, 40.1234567000, -81.1234567000, 0, -1.2369858600, 2.0818168793, 2.4215894650, -1.4199350564, -0.3002263011, 0.1567117572, 0.0312579982, -1.2369858600, -0.3009315490, 0.1580962370, -0.3258003947, 0.0000000000, 0.0000000000, 1480, 1570, 40.1234540000, -81.1234400000, 0.0000000000, 0.0000000000, 0.9992619753, 0.1590549946, 9.6194343567, -0.1260730028, -0.1215400025, 0.0296000000, 0.0000000000, 0.0000000000, 0.0000000000, 0.0000000000, 0.0000000000, 0, -0.0400000215, 0.1399999857, 0.1388701499, 0.1745533645, 90.0000000000, 90.0000000000, 90.0000000000, 0.0000000000, 0.0000000000, 0.0000000000, 24.4640007019, 0.0000000000, 0.0000000000, 5, 2, 10, 1, 0
1536699996764, 20764, AUTO, 0, 40.1234567000, -81.1234567000, 0, -1.2369858600, 2.0818168793, 2.4215894650, -1.5049611080, -0.3002263011, 0.1582751870, -0.0210960004, -1.2369858600, -0.3009315490, 0.1580962370, -0.3258003947, 0.0000000000, 0.0000000000, 1490, 1570, 40.1234540000, -81.1234390000, 0.0000000000, 0.0000000000, 2.2315630913, -0.3899759948, 10.2015237808, -0.0210960004, -0.1247719973, 0.0721290037, 0.0000000000, 0.0000000000, 0.0000000000, 0.0000000000, 0.0000000000, 0, -0.0199999809, 0.1399999857, 0.1383183599, 0.1782320291, 90.0000000000, 90.0000000000, 90.0000000000, 0.0000000000, 0.0000000000, 0.0000000000, 24.4640007019, 0.0000000000, 0.0000000000, 5, 2, 10, 1, 0
1536699996964, 20964, AUTO, 0, 40.1234567000, -81.1234567000, 0, -1.3007635085, 2.0817853510, 2.4547537458, -1.5049611080, -0.3002263011, 0.1614020765, -0.0661540031, -1.3007635085, -0.3009630773, 0.1581551691, -0.3316235836, 0.0000000000, 0.0000000000, 1490, 1570, 40.1234540000, -81.1234390000, 0.0000000000, 0.0000000000, 1.3377840519, 0.3070969880, 8.8498001099, -0.0661540031, -0.0099309999, 0.0271210000, 0.0000000000, 0.0000000000, 0.0000000000, 0.0000000000, 0.0000000000, 0, -0.0199999809, 0.1399999857, 0.1383183599, 0.1844857931, 90.0000000000, 90.0000000000, 90.0000000000, 0.0000000000, 0.0000000000, 0.0000000000, 25.0019989014, 0.0000000000, 0.0000000000, 5, 2, 10, 1, 0
1536699997165, 21165, AUTO, 0, 40.1234567000, -81.1234567000, 0, -1.3007635085, 2.0817853510, 2.4547537458, -1.5049611080, -0.3002263011, 0.1681156605, -0.0661540031, -1.3007635085, -0.3009630773, 0.1581551691, -0.3316235836, 0.0000000000, 0.0000000000, 1490, 1570, 40.1234540000, -81.1234390000, 0.0000000000, 0.0000000000, 0.3641540110, -0.9443600178, 10.4705753326, -0.0355370007, 0.0919390023, -0.0031590001, 0.0000000000, 0.0000000000, 0.0000000000, 0.0000000000, 0.0000000000, 0, -0.0199999809, 0.1399999857, 0.1495383233, 0.1866929978, 90.0000000000, 90.0000000000, 90.0000000000, 0.0000000000, 0.0000000000, 0.0000000000, 25.0019989014, 0.0000000000, 0.0000000000, 5, 2, 10, 1, 0
1536699997365, 21365, AUTO, 0, 40.1234567000, -81.1234567000, 0, -1.3007635085, 2.0817853510, 2.4547537458, -1.5049611080, -0.3002263011, 0.1608502865, -0.0661540031, -1.3007635085, -0.3009630773, 0.1581551691, -0.3316235836, 0.0000000000, 0.0000000000, 1510, 1570, 40.1234540000, -81.1234390000, 0.0000000000, 0.0000000000, 4.6863732338, -4.3659667969, 11.6888847351, -0.0185310002, 1.0258560181, 0.0043110000, 0.0000000000, 0.0000000000, 0.0000000000, 0.0000000000, 0.0000000000, 0, 0.0199999809, 0.1399999857, 0.1480668634, 0.1736336946, 90.0000000000, 90.0000000000, 90.0000000000, 0.0000000000, 0.0000000000, 0.0000000000, 25.0019989014, 0.0000000000, 0.0000000000, 5, 2, 10, 1, 0
1536699997566, 21566, AUTO, 0, 40.1234567000, -81.1234567000, 0, -1.3007635085, 2.0817853510, 2.4547537458, -1.5049611080, -0.3002263011, 0.1622297764, -0.0661540031, -1.3007635085, -0.3009630773, 0.1581551691, -0.3316235836, 0.0000000000, 0.0000000000, 1520, 1570, 40.1234540000, -81.1234390000, 0.0000000000, 0.0000000000, -0.2685000002, -0.0206579994, 8.5309095383, -0.0101070004, -0.0734369978, -0.0823879987, 0.0000000000, 0.0000000000, 0.0000000000, 0.0000000000, 0.0000000000, 0, 0.0399999619, 0.1399999857, 0.1605743766, 0.1638851911, 90.0000000000, 90.0000000000, 90.0000000000, 0.0000000000, 0.0000000000, 0.0000000000, 25.0019989014, 0.0000000000, 0.0000000000, 5, 2, 10, 1, 0
1536699997766, 21766, AUTO, 0, 40.1234567000, -81.1234567000, 0, -1.3007635085, 2.0817853510, 2.4547537458, -1.5049611080, -0.3002263011, 0.1628735363, -0.0661540031, -1.3007635085, -0.3009630773, 0.1581551691, -0.3316235836, 0.0000000000, 0.0000000000, 1490, 1570, 40.1234540000, -81.1234390000, 0.0000000000, 0.0000000000, -0.4584830105, -0.1116280034, 9.6189250946, -0.0705320016, -0.0295889992, -0.0139640002, 0.0000000000, 0.0000000000, 0.0000000000, 0.0000000000, 0.0000000000, 0, -0.0199999809, 0.1399999857, 0.1488025934, 0.1769444942, 90.0000000000, 90.0000000000, 90.0000000000, 0.0000000000, 0.0000000000, 0.0000000000, 25.0019989014, 0.0000000000, 0.0000000000, 5, 2, 10, 1, 0
1536699997966, 21966, AUTO, 0, 40.1234567000, -81.1234567000, 0, -1.3432793208, 2.0817687927, 2.4775311582, -1.6750132113, -0.3002263011, 0.1605743766, -0.0328890011, -1.3432793208, -0.3009796356, 0.1581969473, -0.3416762256, 0.0000000000, 0.0000000000, 1490, 1570, 40.1234540000, -81.1234370000, 0.0000000000, 0.0000000000, 0.0786669999, -1.4437259436, 10.8156204224, 0.0307340007, 0.0211030003, 0.0722310022, 0.0000000000, 0.0000000000, 0.0000000000, 0.0000000000, 0.0000000000, 0, -0.0199999809, 0.1399999857, 0.1728979498, 0.1482508034, 90.0000000000, 90.0000000000, 90.0000000000, 0.0000000000, 0.0000000000, 0.0000000000, 25.5400009155, 0.0000000000, 0.0000000000, 5, 2, 10, 1, 0
1536699998167, 22167, AUTO, 0, 40.1234567000, -81.1234567000, 0, -1.3804871596, 2.0817525664, 2.4978868160, -1.6750132113, -0.3002263011, 0.1616779864, 0.0268319994, -1.3804871596, -0.3009958619, 0.1580408817, -0.3486521007, 0.0000000000, 0.0000000000, 1520, 1570, 40.1234540000, -81.1234370000, 0.0000000000, 0.0000000000, 0.5527430177, 0.4421199858, 10.0252380371, 0.0403780006, -0.0443909988, 0.0042530000, 0.0000000000, 0.0000000000, 0.0000000000, 0.0000000000, 0.0000000000, 0, 0.0399999619, 0.1399999857, 0.1870608777, 0.1362950951, 90.0000000000, 90.0000000000, 90.0000000000, 0.0000000000, 0.0000000000, 0.0000000000, 24.4640007019, 0.0000000000, 0.0000000000, 5, 2, 10, 1, 0
1536699998367, 22367, AUTO, 0, 40.1234567000, -81.1234567000, 0, -1.4123790073, 2.0817364469, 2.5156393014, -1.6750132113, -0.3002263011, 0.1605743766, -0.0343089998, -1.4123790073, -0.3010119814, 0.1580077121, -0.3499881661, 0.0000000000, 0.0000000000, 1450, 1570, 40.1234540000, -81.1234370000, 0.0000000000, 0.0000000000, -0.1408880055, -1.1342090368, 10.8520917892, -0.0632070005, 0.0226930007, 0.0585590005, 0.0000000000, 0.0000000000, 0.0000000000, 0.0000000000, 0.0000000000, 0, -0.1000000238, 0.1399999857, 0.1491704732, 0.1719782799, 90.0000000000, 90.0000000000, 90.0000000000, 0.0000000000, 0.0000000000, 0.0000000000, 25.5400009155, 0.0000000000, 0.0000000000, 5, 2, 10, 1, 0
1536699998567, 22567, AUTO, 0, 40.1234567000, -81.1234567000, 0, -1.4442681106, 2.0817208153, 2.5336676831, -1.6750132113, -0.3002263011, 0.1607583165, -0.0654440001, -1.4442681106, -0.3010276130, 0.1580810348, -0.3572948233, 0.0000000000, 0.0000000000, 1480, 1570, 40.1234540000, -81.1234370000, 0.0000000000, 0.0000000000, -0.1143629998, 0.0914419964, 7.9470338821, 0.0231560003, 0.2654759884, -0.2866890132, 0.0000000000, 0.0000000000, 0.0000000000, 0.0000000000, 0.0000000000, 0, -0.0400000215, 0.1399999857, 0.1478829235, 0.1736336946, 90.0000000000, 90.0000000000, 90.0000000000, 0.0000000000, 0.0000000000, 0.0000000000, 24.4640007019, 0.0000000000, 0.0000000000, 5, 2, 10, 1, 0
1536699998768, 22768, AUTO, 0, 40.1234567000, -81.1234567000, 0, -1.4814706822, 2.0817047274, 2.5550440220, -1.7600392629, -0.3002263011, 0.1606663465, -0.0923649967, -1.4814706822, -0.3010437009, 0.1581529620, -0.3677558790, 0.0000000000, 0.0000000000, 1490, 1570, 40.1234540000, -81.1234360000, 0.0000000000, 0.0000000000, 0.7920719981, 0.5971120000, 7.5135560036, -0.0923649967, -0.1505530030, -0.3453739882, 0.0000000000, 0.0000000000, 0.0000000000, 0.0000000000, 0.0000000000, 0, -0.0199999809, 0.1399999857, 0.1866929978, 0.1346396804, 90.0000000000, 90.0000000000, 90.0000000000, 0.0000000000, 0.0000000000, 0.0000000000, 24.4640007019, 0.0000000000, 0.0000000000, 5, 2, 10, 1, 0
1536699998968, 22968, AUTO, 0, 40.1234567000, -81.1234567000, 0, -1.5452534042, 2.0816741607, 2.5925229787, -1.7600392629, -0.3002263011, 0.1606663316, -0.3251689970, -1.5452534042, -0.3010742676, 0.1581045473, -0.3827466270, 0.0000000000, 0.0000000000, 1500, 1570, 40.1234540000, -81.1234360000, 0.0000000000, 0.0000000000, -0.2258030027, -0.5454440117, 8.6223230362, -0.3251689970, 0.0909899995, -0.0876059979, 0.0000000000, 0.0000000000, 0.0000000000, 0.0000000000, 0.0000000000, 0, 0.0000000000, 0.1399999857, 0.0956456736, 0.2256869972, 90.0000000000, 90.0000000000, 90.0000000000, 0.0000000000, 0.0000000000, 0.0000000000, 25.0019989014, 0.0000000000, 0.0000000000, 5, 2, 10, 1, 0
1536699999169, 23169, AUTO, 0, 40.1234567000, -81.1234567000, 0, -1.5718398800, 2.0816567808, 2.6084431298, -1.7600392629, -0.3002263011, 0.1639771461, -0.4014990032, -1.5718398800, -0.3010916475, 0.1576070134, -0.4188604972, 0.0000000000, 0.0000000000, 1520, 1570, 40.1234540000, -81.1234360000, 0.0000000000, 0.0000000000, -0.4867250025, -0.1135779992, 9.4530019760, -0.2392890006, -0.0244849995, -0.1977619976, 0.0000000000, 0.0000000000, 0.0000000000, 0.0000000000, 0.0000000000, 0, 0.0399999619, 0.1399999857, 0.1346396804, 0.1933146268, 90.0000000000, 90.0000000000, 90.0000000000, 0.0000000000, 0.0000000000, 0.0000000000, 24.4640007019, 0.0000000000, 0.0000000000, 5, 2, 10, 1, 0
1536699999370, 23370, AUTO, 0, 40.1234567000, -81.1234567000, 0, -1.5984137942, 2.0816254336, 2.6245173087, -1.7600392629, -0.3002263011, 0.1625056863, -0.0153740002, -1.5984137942, -0.3011229947, 0.1582164184, -0.4624236574, 0.0000000000, 0.0000000000, 1590, 1570, 40.1234540000, -81.1234360000, 0.0000000000, 0.0000000000, -0.0628340021, -1.9021090269, 6.4801511765, -0.0182119999, -0.2734099925, -0.1215450019, 0.0000000000, 0.0000000000, 0.0000000000, 0.0000000000, 0.0000000000, 0, 0.1799999475, 0.1399999857, 0.1513776779, 0.1736336946, 90.0000000000, 90.0000000000, 90.0000000000, 0.0000000000, 0.0000000000, 0.0000000000, 25.0019989014, 0.0000000000, 0.0000000000, 5, 2, 10, 1, 0
1536699999570, 23570, AUTO, 0, 40.1234567000, -81.1234567000, 0, -1.5984137942, 2.0816254336, 2.6245173087, -1.7600392629, -0.3002263011, 0.1606663465, -0.0153740002, -1.5984137942, -0.3011229947, 0.1582164184, -0.4624236574, 0.0000000000, 0.0000000000, 1550, 1570, 40.1234540000, -81.1234360000, 0.0000000000, 0.0000000000, -3.0449919701, 0.1137389988, 5.9007039070, -0.0119369999, 0.3340260088, 0.0087320004, 0.0000000000, 0.0000000000, 0.0000000000, 0.0000000000, 0.0000000000, 0, 0.1000000238, 0.1399999857, 0.1603904366, 0.1609422415, 90.0000000000, 90.0000000000, 90.0000000000, 0.0000000000, 0.0000000000, 0.0000000000, 25.0019989014, 0.0000000000, 0.0000000000, 5, 2, 10, 1, 0
1536699999771, 23771, AUTO, 0, 40.1234567000, -81.1234567000, 0, -1.5984137942, 2.0816254336, 2.6245173087, -1.7600392629, -0.3002263011, 0.1631494462, -0.0153740002, -1.5984137942, -0.3011229947, 0.1582164184, -0.4624236574, 0.0000000000, 0.0000000000, 1550, 1570, 40.1234540000, -81.1234360000, 0.0000000000, 0.0000000000, 1.1009860039, -0.1391019970, 9.0126771927, 0.0449509993, -0.1597940028, 0.1833200008, 0.0000000000, 0.0000000000, 0.0000000000, 0.0000000000, 0.0000000000, 0, 0.1000000238, 0.1399999857, 0.1866929978, 0.1396059096, 90.0000000000, 90.0000000000, 90.0000000000, 0.0000000000, 0.0000000000, 0.0000000000, 25.0019989014, 0.0000000000, 0.0000000000, 5, 2, 10, 1, 0
1536699999972, 23972, AUTO, 0, 40.1234567000, -81.1234567000, 0, -1.5984137942, 2.0816254336, 2.6245173087, -1.7600392629, -0.3002263011, 0.1674719006, -0.0153740002, -1.5984137942, -0.3011229947, 0.1582164184, -0.4624236574, 0.0000000000, 0.0000000000, 1540, 1570, 40.1234540000, -81.1234360000, 0.0000000000, 0.0000000000, -0.0207739994, -0.0948209986, 9.1599187851, 0.1655610055, -0.0643799976, 0.1963080019, 0.0000000000, 0.0000000000, 0.0000000000, 0.0000000000, 0.0000000000, 0, 0.0800000429, 0.1399999857, 0.2516216934, 0.0833221003, 90.0000000000, 90.0000000000, 90.0000000000, 0.0000000000, 0.0000000000, 0.0000000000, 25.0019989014, 0.0000000000, 0.0000000000, 5, 2, 10, 1, 0
1536700000172, 24172, AUTO, 0, 40.1234567000, -81.1234567000, 0, -1.5984137942, 2.0816254336, 2.6245173087, -1.7600392629, -0.3002263011, 0.1637012511, -0.0153740002, -1.5984137942, -0.3011229947, 0.1582164184, -0.4624236574, 0.0000000000, 0.0000000000, 1540, 1570, 40.1234540000, -81.1234360000, 0.0000000000, 0.0000000000, -1.4822299480, -0.2728480101, 10.6353797913, 0.1107539982, 0.0486270003, -0.0444190018, 0.0000000000, 0.0000000000, 0.0000000000, 0.0000000000, 0.0000000000, 0, 0.0800000429, 0.1399999857, 0.2122598290, 0.1151426807, 90.0000000000, 90.0000000000, 90.0000000000, 0.0000000000, 0.0000000000, 0.0000000000, 25.0019989014, 0.0000000000, 0.0000000000, 5, 2, 10, 1, 0
1536700000373, 24373, AUTO, 0, 40.1234567000, -81.1234567000, 0, -1.6249970608, 2.0815925172, 2.6407655813, -1.8450653135, -0.3002263011, 0.1669200957, 0.1442739964, -1.6249970608, -0.3011559111, 0.1583230440, -0.4682191614, 0.0000000000, 0.0000000000, 1560, 1570, 40.1234540000, -81.1234350000, 0.0000000000, 0.0000000000, -1.4885189533, 1.8427959681, 9.3045206070, 0.1360139996, -0.0216990001, -0.1904139966, 0.0000000000, 0.0000000000, 0.0000000000, 0.0000000000, 0.0000000000, 0, 0.1200000048, 0.1399999857, 0.2137313038, 0.1201088950, 90.0000000000, 90.0000000000, 90.0000000000, 0.0000000000, 0.0000000000, 0.0000000000, 25.5400009155, 0.0000000000, 0.0000000000, 5, 2, 10, 1, 0
1536700000573, 24573, AUTO, 0, 40.1234567000, -81.1234567000, 0, -1.6249970608, 2.0815925172, 2.6407655813, -1.8450653135, -0.3002263011, 0.1606663316, 0.1442739964, -1.6249970608, -0.3011559111, 0.1583230440, -0.4682191614, 0.0000000000, 0.0000000000, 1570, 1570, 40.1234540000, -81.1234350000, 0.0000000000, 0.0000000000, 0.4774450064, 0.4366840124, 8.4923620224, -0.0461309999, -0.2337650061, -0.2560830116, 0.0000000000, 0.0000000000, 0.0000000000, 0.0000000000, 0.0000000000, 0, 0.1399999857, 0.1399999857, 0.2256869972, 0.0956456736, 90.0000000000, 90.0000000000, 90.0000000000, 0.0000000000, 0.0000000000, 0.0000000000, 25.5400009155, 0.0000000000, 0.0000000000, 5, 2, 10, 1, 0
1536700000774, 24774, AUTO, 0, 40.1234567000, -81.1234567000, 0, -1.6249970608, 2.0815925172, 2.6407655813, -1.8450653135, -0.3002263011, 0.1604824066, 0.1442739964, -1.6249970608, -0.3011559111, 0.1583230440, -0.4682191614, 0.0000000000, 0.0000000000, 1590, 1570, 40.1234540000, -81.1234350000, 0.0000000000, 0.0000000000, 1.4775320292, -3.0357561111, 11.6728649139, -0.0243180003, -0.1723619998, 0.0648420006, 0.0000000000, 0.0000000000, 0.0000000000, 0.0000000000, 0.0000000000, 0, 0.1799999475, 0.1399999857, 0.2126276940, 0.1083371192, 90.0000000000, 90.0000000000, 90.0000000000, 0.0000000000, 0.0000000000, 0.0000000000, 25.5400009155, 0.0000000000, 0.0000000000, 5, 2, 10, 1, 0
1536700000974, 24974, AUTO, 0, 40.1234567000, -81.1234567000, 0, -1.6249970608, 2.0815925172, 2.6407655813, -1.8450653135, -0.3002263011, 0.1616779864, 0.1442739964, -1.6249970608, -0.3011559111, 0.1583230440, -0.4682191614, 0.0000000000, 0.0000000000, 1550, 1570, 40.1234540000, -81.1234350000, 0.0000000000, 0.0000000000, 0.0516979992, 0.5798140168, 12.1879615784, 0.1820430011, 0.0287420005, -0.0082689999, 0.0000000000, 0.0000000000, 0.0000000000, 0.0000000000, 0.0000000000, 0, 0.1000000238, 0.1399999857, 0.2367230505, 0.0866329074, 90.0000000000, 90.0000000000, 90.0000000000, 0.0000000000, 0.0000000000, 0.0000000000, 25.5400009155, 0.0000000000, 0.0000000000, 5, 2, 10, 1, 0
1536700001175, 25175, AUTO, 0, 40.1234567000, -81.1234567000, 0, -1.6249970608, 2.0815925172, 2.6407655813, -1.9300913640, -0.3002263011, 0.1639771461, 0.1931080073, -1.6249970608, -0.3011559111, 0.1583230440, -0.4682191614, 0.0000000000, 0.0000000000, 1560, 1570, 40.1234540000, -81.1234340000, 0.0000000000, 0.0000000000, -1.7973159552, 0.7851920128, 9.0315809250, 0.1931080073, 0.0626560003, 0.0810939968, 0.0000000000, 0.0000000000, 0.0000000000, 0.0000000000, 0.0000000000, 0, 0.1200000048, 0.1399999857, 0.2519895732, 0.0759647340, 90.0000000000, 90.0000000000, 90.0000000000, 0.0000000000, 0.0000000000, 0.0000000000, 25.5400009155, 0.0000000000, 0.0000000000, 5, 2, 10, 1, 0
1536700001376, 25376, AUTO, 0, 40.1234567000, -81.1234567000, 0, -1.6941033382, 2.0815406019, 2.6838027867, -2.0151174156, -0.3002263011, 0.1594707668, 0.2734690011, -1.6941033382, -0.3012078264, 0.1582314642, -0.4440828954, 0.0000000000, 0.0000000000, 1560, 1570, 40.1234540000, -81.1234330000, 0.0000000000, 0.0000000000, 3.6353909969, -2.8346650600, 11.3453321457, 0.2734690011, -0.0927670002, 0.0819559991, 0.0000000000, 0.0000000000, 0.0000000000, 0.0000000000, 0.0000000000, 0, 0.1200000048, 0.1399999857, 0.2174099833, 0.1015315652, 90.0000000000, 90.0000000000, 90.0000000000, 0.0000000000, 0.0000000000, 0.0000000000, 23.9249992371, 0.0000000000, 0.0000000000, 5, 2, 10, 1, 0
1536700001576, 25576, AUTO, 0, 40.1234567000, -81.1234567000, 0, -1.6941033382, 2.0815406019, 2.6838027867, -2.0151174156, -0.3002263011, 0.1661843657, 0.1582159996, -1.6941033382, -0.3012078264, 0.1582314642, -0.4440828954, 0.0000000000, 0.0000000000, 1540, 1570, 40.1234540000, -81.1234330000, 0.0000000000, 0.0000000000, -0.5320619941, 0.9529439807, 9.8315200806, 0.1582159996, 0.0784050003, -0.0380109996, 0.0000000000, 0.0000000000, 0.0000000000, 0.0000000000, 0.0000000000, 0, 0.0800000429, 0.1399999857, 0.2389302552, 0.0934384689, 90.0000000000, 90.0000000000, 90.0000000000, 0.0000000000, 0.0000000000, 0.0000000000, 24.4640007019, 0.0000000000, 0.0000000000, 5, 2, 10, 1, 0
1536700001777, 25777, AUTO, 0, 40.1234567000, -81.1234567000, 0, -1.7313051366, 2.0815223422, 2.7074254814, -2.0151174156, -0.3002263011, 0.1609422415, 0.1468659937, -1.7313051366, -0.3012260861, 0.1585496892, -0.4219441346, 0.0000000000, 0.0000000000, 1530, 1570, 40.1234540000, -81.1234330000, 0.0000000000, 0.0000000000, 0.0553289987, 0.9608150125, 9.5289745331, 0.1468659937, -0.0472059995, -0.0227119997, 0.0000000000, 0.0000000000, 0.0000000000, 0.0000000000, 0.0000000000, 0, 0.0599999428, 0.1399999857, 0.2262388170, 0.0956456736, 90.0000000000, 90.0000000000, 90.0000000000, 0.0000000000, 0.0000000000, 0.0000000000, 24.4640007019, 0.0000000000, 0.0000000000, 5, 2, 10, 1, 0
1536700001978, 25978, AUTO, 0, 40.1234567000, -81.1234567000, 0, -1.8003940356, 2.0815074991, 2.7521068570, -2.0151174156, -0.3002263011, 0.1621378064, 0.0666100010, -1.8003940356, -0.3012409292, 0.1587029530, -0.4011418985, 0.0000000000, 0.0000000000, 1520, 1570, 40.1234540000, -81.1234330000, 0.0000000000, 0.0000000000, -1.3416659832, -0.5765879750, 9.6858348846, 0.0271949992, 0.1307030022, 0.3457509875, 0.0000000000, 0.0000000000, 0.0000000000, 0.0000000000, 0.0000000000, 0, 0.0399999619, 0.1399999857, 0.2126276940, 0.1116479263, 90.0000000000, 90.0000000000, 90.0000000000, 0.0000000000, 0.0000000000, 0.0000000000, 24.4640007019, 0.0000000000, 0.0000000000, 5, 2, 10, 1, 0
1536700002178, 26178, AUTO, 0, 40.1234567000, -81.1234567000, 0, -1.8322771900, 2.0815060617, 2.7730681899, -2.0151174156, -0.3002263011, 0.1617699414, -0.0935119987, -1.8322771900, -0.3012423666, 0.1588470380, -0.3988301198, 0.0000000000, 0.0000000000, 1500, 1570, 40.1234540000, -81.1234330000, 0.0000000000, 0.0000000000, -0.7239890099, 1.1019439697, 8.2986307144, -0.1503300071, 0.0890400037, -0.4892550111, 0.0000000000, 0.0000000000, 0.0000000000, 0.0000000000, 0.0000000000, 0, 0.0000000000, 0.1399999857, 0.1997523159, 0.1237875745, 90.0000000000, 90.0000000000, 90.0000000000, 0.0000000000, 0.0000000000, 0.0000000000, 24.4640007019, 0.0000000000, 0.0000000000, 5, 2, 10, 1, 0
1536700002379, 26379, AUTO, 0, 40.1234567000, -81.1234567000, 0, -1.8535379756, 2.0815059328, 2.7871616342, -2.0151174156, -0.3002263011, 0.1618619114, 0.0080450000, -1.8535379756, -0.3012424955, 0.1587145248, -0.4125669861, 0.0000000000, 0.0000000000, 1520, 1570, 40.1234540000, -81.1234330000, 0.0000000000, 0.0000000000, 0.2790789902, 2.6495699883, 6.4382390976, -0.0340580009, -0.1099959984, -0.0632349998, 0.0000000000, 0.0000000000, 0.0000000000, 0.0000000000, 0.0000000000, 0, 0.0399999619, 0.1399999857, 0.1866929978, 0.1370308250, 90.0000000000, 90.0000000000, 90.0000000000, 0.0000000000, 0.0000000000, 0.0000000000, 25.0019989014, 0.0000000000, 0.0000000000, 5, 2, 10, 1, 0
1536700002580, 26580, AUTO, 0, 40.1234567000, -81.1234567000, 0, -1.8747929862, 2.0815028871, 2.8013395029, -2.0151174156, -0.3002263011, 0.1611261666, -0.1205789968, -1.8747929862, -0.3012455412, 0.1588908828, -0.4161068209, 0.0000000000, 0.0000000000, 1520, 1570, 40.1234540000, -81.1234330000, 0.0000000000, 0.0000000000, 0.2527039945, -0.3161520064, 9.9676475525, -0.0478990003, 0.0335640013, -0.0286589991, 0.0000000000, 0.0000000000, 0.0000000000, 0.0000000000, 0.0000000000, 0, 0.0399999619, 0.1399999857, 0.1865090579, 0.1357432753, 90.0000000000, 90.0000000000, 90.0000000000, 0.0000000000, 0.0000000000, 0.0000000000, 24.4640007019, 0.0000000000, 0.0000000000, 5, 2, 10, 1, 0
